{
  "version": 0.6,
  "generator": "Overpass API 0.7.62.10 2d4cfc48",
  "osm3s": {
    "timestamp_osm_base": "2026-01-31T22:31:32Z",
    "copyright": "The data included in this document is from www.openstreetmap.org. The data is made available under ODbL."
  },
  "elements": [

{
  "type": "node",
  "id": 245759577,
  "lat": 27.4854679,
  "lon": 95.0170764,
  "tags": {
    "aerodrome:type": "military/public",
    "aeroway": "aerodrome",
    "closest_town": "Dibrugarh",
    "ele": "110",
    "iata": "DIB",
    "icao": "VEMN",
    "is_in:country": "India",
    "landuse": "military",
    "military": "airfield",
    "name": "Dibrugarh Mohanbari Airport",
    "name:en": "Dibrugarh Mohanbari Airport",
    "name:ta": "திப்ருகர் விமான நிலையம்",
    "name:zh": "迪布鲁加尔机场",
    "name:zh-Hans": "迪布鲁加尔机场",
    "name:zh-Hant": "迪布魯加爾機場",
    "name_2": "Mohanbari Airport",
    "source": "wikipedia",
    "wikidata": "Q1657723",
    "wikipedia": "en:Dibrugarh Airport"
  }
},
{
  "type": "node",
  "id": 287237878,
  "lat": 32.0513349,
  "lon": 78.6058575,
  "tags": {
    "access": "permissive",
    "barrier": "rope",
    "military": "checkpoint",
    "name": "Sumdo checkpoint",
    "note": "Inner Line Permit required to pass"
  }
},
{
  "type": "node",
  "id": 287238786,
  "lat": 31.6088037,
  "lon": 78.4367382,
  "tags": {
    "military": "checkpoint",
    "name": "Jangi checkpoint",
    "note": "Inner Line Permit required to pass"
  }
},
{
  "type": "node",
  "id": 298166831,
  "lat": 30.1024900,
  "lon": 95.0781600,
  "tags": {
    "barrier": "lift_gate",
    "military": "checkpoint",
    "note": "Military checkpoint"
  }
},
{
  "type": "node",
  "id": 697276907,
  "lat": 26.7018159,
  "lon": 89.3664783,
  "tags": {
    "access": "military",
    "aeroway": "aerodrome",
    "icao": "VEHX",
    "is_in:country": "India",
    "landuse": "military",
    "military": "airfield",
    "name": "Hasimara Air Force Station",
    "name:bn": "হাসিমারা বিমানঘাঁটি",
    "name:ta": "ஹசிமாரா வான்படைத் தளம்",
    "operator": "No. 101 Squadron IAF",
    "source": "ourairports.com"
  }
},
{
  "type": "node",
  "id": 746951085,
  "lat": 27.5515210,
  "lon": 95.5728029,
  "tags": {
    "aeroway": "aerodrome",
    "is_in": "Sookerating",
    "is_in:country": "India",
    "landuse": "military",
    "military": "airfield",
    "name": "Sookerating Airfield",
    "source": "ourairports.com"
  }
},
{
  "type": "node",
  "id": 746952719,
  "lat": 27.4630047,
  "lon": 95.1143134,
  "tags": {
    "aeroway": "aerodrome",
    "icao": "VECA",
    "is_in:country": "India",
    "landuse": "military",
    "military": "airfield",
    "name": "Chabua Air Force Station",
    "source": "ourairports.com"
  }
},
{
  "type": "node",
  "id": 747078264,
  "lat": 32.9357151,
  "lon": 79.2139546,
  "tags": {
    "is_in:country": "India",
    "military": "airfield",
    "name": "Fukche Advanced Landing Ground"
  }
},
{
  "type": "node",
  "id": 766919007,
  "lat": 27.9409208,
  "lon": 85.4817685,
  "tags": {
    "military": "checkpoint"
  }
},
{
  "type": "node",
  "id": 787131758,
  "lat": 33.1699171,
  "lon": 78.8232084,
  "tags": {
    "bicycle": "yes",
    "foot": "yes",
    "horse": "yes",
    "military": "checkpoint",
    "motor_vehicle": "yes",
    "name": "Loma ITBP Check-Post.",
    "name:ar": "نقطة تفتيش لشرطة الحدود الهندية التبتية لوما",
    "name:ur": "بھارت-تبتی سرحد پولیس لوما کی چیک پوائنٹ"
  }
},
{
  "type": "node",
  "id": 828999248,
  "lat": 26.8186358,
  "lon": 92.5989607,
  "tags": {
    "military": "airfield",
    "name": "Missamari Airforce Station"
  }
},
{
  "type": "node",
  "id": 1270198470,
  "lat": 27.3784453,
  "lon": 79.6233873,
  "tags": {
    "military": "checkpoint"
  }
},
{
  "type": "node",
  "id": 1270201934,
  "lat": 27.3688726,
  "lon": 79.6329387,
  "tags": {
    "military": "checkpoint"
  }
},
{
  "type": "node",
  "id": 1270202153,
  "lat": 27.3928704,
  "lon": 79.6278210,
  "tags": {
    "military": "checkpoint"
  }
},
{
  "type": "node",
  "id": 1428681745,
  "lat": 31.5834943,
  "lon": 78.3928740,
  "tags": {
    "military": "checkpoint"
  }
},
{
  "type": "node",
  "id": 1437223034,
  "lat": 28.8337912,
  "lon": 95.9605256,
  "tags": {
    "military": "airfield",
    "name": "Ahunli Airstrip"
  }
},
{
  "type": "node",
  "id": 1498837932,
  "lat": 28.1286766,
  "lon": 97.0189209,
  "tags": {
    "aeroway": "aerodrome",
    "disused": "yes",
    "internet_access": "no",
    "landuse": "military",
    "military": "airfield",
    "name": "Walong Advanced Landing Ground",
    "name:en": "Walong Advanced Landing Ground",
    "name:zh": "瓦弄机场",
    "name:zh-Hans": "瓦弄机场",
    "name:zh-Hant": "瓦弄機場",
    "wikidata": "Q96414225",
    "wikipedia": "en:Walong Advanced Landing Ground"
  }
},
{
  "type": "node",
  "id": 1845302300,
  "lat": 27.8973949,
  "lon": 79.9214553,
  "tags": {
    "military": "checkpoint"
  }
},
{
  "type": "node",
  "id": 1905286439,
  "lat": 27.6994940,
  "lon": 85.3219917,
  "tags": {
    "military": "office",
    "name": "Nepal Army's office"
  }
},
{
  "type": "node",
  "id": 2023642716,
  "lat": 27.4883588,
  "lon": 89.7236649,
  "tags": {
    "military": "checkpoint"
  }
},
{
  "type": "node",
  "id": 2301196020,
  "lat": 26.7191153,
  "lon": 92.7774284,
  "tags": {
    "military": "checkpoint"
  }
},
{
  "type": "node",
  "id": 2406229111,
  "lat": 29.2740792,
  "lon": 80.6243525,
  "tags": {
    "military": "barracks"
  }
},
{
  "type": "node",
  "id": 2419001659,
  "lat": 33.1698917,
  "lon": 78.8233433,
  "tags": {
    "military": "checkpoint",
    "name": "ITBP Check-Post",
    "name:ar": "نقطة تفتيش لشرطة الحدود الهندية التبتية",
    "name:ur": "بھارت-تبتی سرحد پولیس کی چوکی",
    "note": "Permits are checked here for proceeding towards Hanle/Pangong Tso"
  }
},
{
  "type": "node",
  "id": 2510148849,
  "lat": 27.3968996,
  "lon": 88.9137462,
  "tags": {
    "landuse": "military",
    "military": "barracks",
    "name": "托加",
    "name:en": "Tojia",
    "name:zh-Latn-pinyin": "Tuō jiā"
  }
},
{
  "type": "node",
  "id": 3519365380,
  "lat": 35.3055494,
  "lon": 78.3045366,
  "tags": {
    "alt_name": "五二四三哨卡;5243哨卡",
    "alt_name:en": "Old Tianwendian",
    "ele": "5243",
    "landuse": "military",
    "military": "barracks",
    "name": "五二四三",
    "name:en": "Point 5243",
    "name:zh-Latn-pinyin": "Wu'ersisan",
    "note": "Original headquarters of the Tianwendian Defence Area; \"Wu'ersisan\" is Chinese for 5243.",
    "ref": "5243",
    "source": "https://books.google.com/books?id=boBNCgAAQBAJ&pg=PA46&lpg=PA46&dq=point+5243;http://picuser.city8.com/news/image/20141020/%BA%CD%CC%EF%B5%D8%C7%F8%B5%D8%CD%BC%B8%DF%C7%E5%B0%E6.jpg"
  }
},
{
  "type": "node",
  "id": 3640405186,
  "lat": 27.6711055,
  "lon": 84.2002248,
  "tags": {
    "landuse": "military"
  }
},
{
  "type": "node",
  "id": 3712176575,
  "lat": 26.0194903,
  "lon": 88.4665666,
  "tags": {
    "landuse": "military",
    "military": "range",
    "name": "বর্ডার গার্ড বাংলাদেশ, ঠাকুরগাঁও আঞ্চলিক সদর দপ্তর",
    "name:en": "Border Guard Bangladesh, Thakurgaon Regional Headquarter"
  }
},
{
  "type": "node",
  "id": 3786995493,
  "lat": 28.8455453,
  "lon": 80.5619392,
  "tags": {
    "military": "barracks"
  }
},
{
  "type": "node",
  "id": 4063162271,
  "lat": 28.1605604,
  "lon": 84.0348607,
  "tags": {
    "military": "training_area",
    "name": "Adam point",
    "name:ne": "याडाम पोइन्ट"
  }
},
{
  "type": "node",
  "id": 4063176790,
  "lat": 28.1600767,
  "lon": 84.0358074,
  "tags": {
    "military": "training_area",
    "name": "Grenade firing range",
    "name:ne": "ग्रेनेड फायरिङ्ग रेन्ज"
  }
},
{
  "type": "node",
  "id": 4063182582,
  "lat": 28.1599889,
  "lon": 84.0320314,
  "tags": {
    "military": "training_area",
    "name": "Raj Dal batty",
    "name:ne": "राज दल बत्ती"
  }
},
{
  "type": "node",
  "id": 4063183707,
  "lat": 28.1627049,
  "lon": 84.0337634,
  "tags": {
    "military": "training_area",
    "name": "View point"
  }
},
{
  "type": "node",
  "id": 4063186354,
  "lat": 28.2007381,
  "lon": 83.9833658,
  "tags": {
    "military": "training_area",
    "name": "Eng bn, (military area)",
    "name:ne": "सैनिक ईलाका"
  }
},
{
  "type": "node",
  "id": 4064799465,
  "lat": 28.6126611,
  "lon": 81.6287385,
  "tags": {
    "military": "range"
  }
},
{
  "type": "node",
  "id": 4067937820,
  "lat": 28.9544812,
  "lon": 82.8917712,
  "tags": {
    "military": "range",
    "name": "Army coy"
  }
},
{
  "type": "node",
  "id": 4193265176,
  "lat": 27.3571631,
  "lon": 96.0095133,
  "tags": {
    "military": "checkpoint",
    "name": "Jairampur Gate",
    "name:en": "Jairampur Gate  Add multilingual name"
  }
},
{
  "type": "node",
  "id": 4193266153,
  "lat": 27.3515682,
  "lon": 96.0181537,
  "tags": {
    "military": "checkpoint"
  }
},
{
  "type": "node",
  "id": 4194454989,
  "lat": 27.4152061,
  "lon": 95.9715059,
  "tags": {
    "military": "checkpoint",
    "name": "Namchik Gate"
  }
},
{
  "type": "node",
  "id": 4294001950,
  "lat": 27.6874571,
  "lon": 85.3760334,
  "tags": {
    "military": "danger_area"
  }
},
{
  "type": "node",
  "id": 4435844472,
  "lat": 33.5647435,
  "lon": 78.7990756,
  "tags": {
    "alt_name:en": "Moldo garrison",
    "military": "checkpoint",
    "name": "门冬",
    "name:en": "Mendong",
    "name:zh": "门冬",
    "source:name": "GNS"
  }
},
{
  "type": "node",
  "id": 4474700380,
  "lat": 28.3663615,
  "lon": 93.0398854,
  "tags": {
    "alt_name:zh": "陇村",
    "landuse": "military",
    "name": "陇",
    "name:en": "Lung",
    "name:zh-Latn-pinyin": "Lǒng",
    "place": "village"
  }
},
{
  "type": "node",
  "id": 4511047685,
  "lat": 27.9165201,
  "lon": 79.9286307,
  "tags": {
    "military": "checkpoint"
  }
},
{
  "type": "node",
  "id": 4511047822,
  "lat": 27.9017518,
  "lon": 79.9152325,
  "tags": {
    "military": "checkpoint"
  }
},
{
  "type": "node",
  "id": 4511047948,
  "lat": 27.9024536,
  "lon": 79.9206017,
  "tags": {
    "military": "checkpoint"
  }
},
{
  "type": "node",
  "id": 4511048714,
  "lat": 27.9210762,
  "lon": 79.9379142,
  "tags": {
    "military": "bunker"
  }
},
{
  "type": "node",
  "id": 4511048715,
  "lat": 27.9232820,
  "lon": 79.9416127,
  "tags": {
    "military": "bunker"
  }
},
{
  "type": "node",
  "id": 4511048716,
  "lat": 27.9231361,
  "lon": 79.9384954,
  "tags": {
    "military": "bunker"
  }
},
{
  "type": "node",
  "id": 4511048717,
  "lat": 27.9213563,
  "lon": 79.9414475,
  "tags": {
    "military": "bunker"
  }
},
{
  "type": "node",
  "id": 4511049049,
  "lat": 27.8974963,
  "lon": 79.9147669,
  "tags": {
    "military": "checkpoint"
  }
},
{
  "type": "node",
  "id": 4511049154,
  "lat": 27.8912457,
  "lon": 79.9147740,
  "tags": {
    "military": "checkpoint"
  }
},
{
  "type": "node",
  "id": 4511049186,
  "lat": 27.8992011,
  "lon": 79.9144050,
  "tags": {
    "military": "checkpoint"
  }
},
{
  "type": "node",
  "id": 4511292380,
  "lat": 27.0420074,
  "lon": 79.9360972,
  "tags": {
    "military": "checkpoint"
  }
},
{
  "type": "node",
  "id": 4511292381,
  "lat": 27.0414450,
  "lon": 79.9348640,
  "tags": {
    "military": "checkpoint"
  }
},
{
  "type": "node",
  "id": 4511292385,
  "lat": 27.0410949,
  "lon": 79.9331902,
  "tags": {
    "military": "checkpoint"
  }
},
{
  "type": "node",
  "id": 4511292495,
  "lat": 27.0402064,
  "lon": 79.9385299,
  "tags": {
    "military": "checkpoint"
  }
},
{
  "type": "node",
  "id": 4526370689,
  "lat": 28.6116141,
  "lon": 81.6270929,
  "tags": {
    "military": "checkpoint",
    "name:en": "Army Checkpoint"
  }
},
{
  "type": "node",
  "id": 4553978677,
  "lat": 28.6113258,
  "lon": 81.6271264,
  "tags": {
    "military": "checkpoint",
    "name": "Army Chekpoint"
  }
},
{
  "type": "node",
  "id": 4662730387,
  "lat": 28.0370278,
  "lon": 95.3353708,
  "tags": {
    "military": "checkpoint",
    "name": "Pasighat Checkpoint"
  }
},
{
  "type": "node",
  "id": 4761898623,
  "lat": 27.6601617,
  "lon": 85.4177134,
  "tags": {
    "military": "barracks",
    "name:en": "Surybinyak Army Barrack"
  }
},
{
  "type": "node",
  "id": 4941924426,
  "lat": 26.9915389,
  "lon": 95.4962607,
  "tags": {
    "military": "checkpoint",
    "name": "Assam Riffles Gate"
  }
},
{
  "type": "node",
  "id": 5008018353,
  "lat": 27.3282155,
  "lon": 88.8298357,
  "tags": {
    "military": "yes"
  }
},
{
  "type": "node",
  "id": 5008018354,
  "lat": 27.3279709,
  "lon": 88.8300559,
  "tags": {
    "military": "yes"
  }
},
{
  "type": "node",
  "id": 5008018355,
  "lat": 27.3278064,
  "lon": 88.8302161,
  "tags": {
    "military": "yes"
  }
},
{
  "type": "node",
  "id": 5008018356,
  "lat": 27.3275707,
  "lon": 88.8304063,
  "tags": {
    "military": "yes"
  }
},
{
  "type": "node",
  "id": 5008018357,
  "lat": 27.3273840,
  "lon": 88.8308267,
  "tags": {
    "military": "yes"
  }
},
{
  "type": "node",
  "id": 5008018358,
  "lat": 27.3269793,
  "lon": 88.8310169,
  "tags": {
    "military": "yes"
  }
},
{
  "type": "node",
  "id": 5008018371,
  "lat": 27.3252807,
  "lon": 88.8317677,
  "tags": {
    "military": "yes"
  }
},
{
  "type": "node",
  "id": 5008018372,
  "lat": 27.3254941,
  "lon": 88.8314974,
  "tags": {
    "military": "yes"
  }
},
{
  "type": "node",
  "id": 5008018373,
  "lat": 27.3249783,
  "lon": 88.8317877,
  "tags": {
    "military": "yes"
  }
},
{
  "type": "node",
  "id": 5008018374,
  "lat": 27.3247338,
  "lon": 88.8319979,
  "tags": {
    "military": "yes"
  }
},
{
  "type": "node",
  "id": 5008018375,
  "lat": 27.3246448,
  "lon": 88.8322882,
  "tags": {
    "military": "yes"
  }
},
{
  "type": "node",
  "id": 5008167082,
  "lat": 27.3312956,
  "lon": 88.8677870,
  "tags": {
    "landuse": "military",
    "military": "checkpoint"
  }
},
{
  "type": "node",
  "id": 5008168835,
  "lat": 27.3876835,
  "lon": 88.8616066,
  "tags": {
    "building": "bunker",
    "military": "bunker",
    "name": "詹娘舍"
  }
},
{
  "type": "node",
  "id": 5084099122,
  "lat": 27.6637111,
  "lon": 85.3216025,
  "tags": {
    "addr:street": "Mahalaxmisthan Road",
    "military": "barracks",
    "name:en": "Rajdal Gan"
  }
},
{
  "type": "node",
  "id": 5086668892,
  "lat": 28.5975865,
  "lon": 93.4047847,
  "tags": {
    "description": "This area is a de facto part of China and should follow China naming conventions, English language should not be in the name tag.",
    "landuse": "military",
    "military": "office",
    "name": "帮起",
    "name:en": "Bangqi",
    "name:zh": "帮起",
    "name:zh-Hans": "帮起",
    "name:zh-Hant": "幫起",
    "name:zh-Latn-pinyin": "Bāng qǐ"
  }
},
{
  "type": "node",
  "id": 5086671102,
  "lat": 28.5817779,
  "lon": 93.4111130,
  "tags": {
    "building": "bunker",
    "description": "This area is a de facto part of China and should follow China naming conventions, English language should not be in the name tag.",
    "ele": "3197",
    "landuse": "military",
    "military": "bunker",
    "name": "形琼普章3197",
    "name:en": "Xingqiangpu Zhang 3197",
    "name:zh": "形琼普章3197",
    "name:zh-Hans": "形琼普章3197",
    "name:zh-Hant": "形瓊普章3197",
    "name:zh-Latn-pinyin": "Xíngqióngpǔ Zhāng 3197"
  }
},
{
  "type": "node",
  "id": 5086672541,
  "lat": 28.5836086,
  "lon": 93.4065460,
  "tags": {
    "alt_name:zh": "形琼普张",
    "description": "This area is a de facto part of China and should follow China naming conventions, English language should not be in the name tag.",
    "fixme": "Sounds like a transliteration of some local language; should get taggged in such a language too.",
    "landuse": "military",
    "military": "barracks",
    "name": "形琼普章（夏格勒桥哨所）",
    "name:en": "Xingqiongpu Zhang (Chagler Bridge Post)",
    "name:zh": "形琼普章",
    "name:zh-Hans": "形琼普章",
    "name:zh-Hant": "形瓊普章",
    "name:zh-Latn-pinyin": "Xíng qióng pǔ zhāng (xià gé lè qiáo shàosuǒ)"
  }
},
{
  "type": "node",
  "id": 5094774646,
  "lat": 27.3810217,
  "lon": 88.9097558,
  "tags": {
    "landuse": "military",
    "military": "barracks"
  }
},
{
  "type": "node",
  "id": 5094890495,
  "lat": 32.6453217,
  "lon": 78.5924985,
  "tags": {
    "military": "checkpoint",
    "name": "Chumar Post"
  }
},
{
  "type": "node",
  "id": 5107222645,
  "lat": 27.7820774,
  "lon": 91.7816009,
  "tags": {
    "landuse": "military",
    "military": "barracks",
    "name": "旺东",
    "name:en": "Wangdong"
  }
},
{
  "type": "node",
  "id": 5107225813,
  "lat": 27.7790966,
  "lon": 91.9778653,
  "tags": {
    "alt_name:en": "Domtsang post",
    "military": "barracks",
    "name": "东章检查点",
    "name:en": "Dong Zhang post",
    "name:zh-Latn-pinyin": "Dōng zhāng jiǎnchá diǎn"
  }
},
{
  "type": "node",
  "id": 5187607831,
  "lat": 28.8008807,
  "lon": 95.9018131,
  "tags": {
    "military": "barracks",
    "name": "9TH ITBP Anini",
    "name:en": "9TH ITBP Anini"
  }
},
{
  "type": "node",
  "id": 5353741334,
  "lat": 27.6765466,
  "lon": 85.3496242,
  "tags": {
    "military": "barracks",
    "name:en": "Shree 2 Jagat Dal Gan"
  }
},
{
  "type": "node",
  "id": 5357069639,
  "lat": 27.6085688,
  "lon": 85.5631904,
  "tags": {
    "military": "checkpoint"
  }
},
{
  "type": "node",
  "id": 5382550256,
  "lat": 28.0954693,
  "lon": 81.6669506,
  "tags": {
    "contact:email": "www.4bed@gmail.com",
    "contact:phone": "083-565195",
    "military": "barracks",
    "name": "Shri No.4 Bahinee Aadda Army Barak"
  }
},
{
  "type": "node",
  "id": 5454153290,
  "lat": 27.3021698,
  "lon": 88.9398778,
  "tags": {
    "building": "bunker",
    "military": "bunker"
  }
},
{
  "type": "node",
  "id": 5454153294,
  "lat": 27.3016501,
  "lon": 88.9403274,
  "tags": {
    "military": "bunker"
  }
},
{
  "type": "node",
  "id": 5454157425,
  "lat": 27.3007147,
  "lon": 88.9408226,
  "tags": {
    "building": "bunker",
    "military": "bunker"
  }
},
{
  "type": "node",
  "id": 5454157442,
  "lat": 27.3008198,
  "lon": 88.9388546,
  "tags": {
    "military": "bunker"
  }
},
{
  "type": "node",
  "id": 5454401314,
  "lat": 27.2977379,
  "lon": 88.9291726,
  "tags": {
    "building": "bunker",
    "military": "bunker"
  }
},
{
  "type": "node",
  "id": 5454401315,
  "lat": 27.2978475,
  "lon": 88.9292855,
  "tags": {
    "building": "bunker",
    "military": "bunker"
  }
},
{
  "type": "node",
  "id": 5454401317,
  "lat": 27.2979405,
  "lon": 88.9292881,
  "tags": {
    "building": "bunker",
    "military": "bunker"
  }
},
{
  "type": "node",
  "id": 5454401318,
  "lat": 27.2980215,
  "lon": 88.9293579,
  "tags": {
    "building": "bunker",
    "military": "bunker"
  }
},
{
  "type": "node",
  "id": 5456997675,
  "lat": 27.2957917,
  "lon": 88.9137315,
  "tags": {
    "military": "bunker"
  }
},
{
  "type": "node",
  "id": 5625563921,
  "lat": 28.1114882,
  "lon": 85.3386432,
  "tags": {
    "military": "office",
    "name:en": "Army camp",
    "name:ru": "Армейский лагерь",
    "tourism": "wilderness_hut"
  }
},
{
  "type": "node",
  "id": 5747716463,
  "lat": 33.4994169,
  "lon": 78.8741144,
  "tags": {
    "military": "checkpoint"
  }
},
{
  "type": "node",
  "id": 6052247702,
  "lat": 27.6643837,
  "lon": 85.3242385,
  "tags": {
    "landuse": "military",
    "military": "office",
    "toilets:wheelchair": "no",
    "wheelchair": "yes"
  }
},
{
  "type": "node",
  "id": 6056438339,
  "lat": 28.2844546,
  "lon": 83.7533471,
  "tags": {
    "military": "barracks"
  }
},
{
  "type": "node",
  "id": 6059328188,
  "lat": 28.2731083,
  "lon": 83.7414535,
  "tags": {
    "military": "barracks",
    "name": "Kewal Jung Gulm"
  }
},
{
  "type": "node",
  "id": 6091310290,
  "lat": 28.4604202,
  "lon": 81.2275656,
  "tags": {
    "military": "office"
  }
},
{
  "type": "node",
  "id": 6295246686,
  "lat": 26.8121394,
  "lon": 86.2876130,
  "tags": {
    "landuse": "military",
    "military": "barracks",
    "name": "Choharwa Barack"
  }
},
{
  "type": "node",
  "id": 6299376185,
  "lat": 34.7490875,
  "lon": 80.1474488,
  "tags": {
    "barrier": "lift_gate",
    "military": "checkpoint"
  }
},
{
  "type": "node",
  "id": 6307440426,
  "lat": 26.9574493,
  "lon": 85.0495756,
  "tags": {
    "military": "barracks",
    "name": "Telkuwa Army Camp"
  }
},
{
  "type": "node",
  "id": 6316039086,
  "lat": 29.9672349,
  "lon": 81.8143214,
  "tags": {
    "military": "barracks",
    "name": "Army Barrack",
    "office": "government",
    "source": "naxa"
  }
},
{
  "type": "node",
  "id": 6320430625,
  "lat": 35.1069931,
  "lon": 78.0504580,
  "tags": {
    "landuse": "military",
    "military": "barracks",
    "name": "Burtse Patrol Base",
    "name:zh": "布尔察（下）",
    "source": "https://www.countercurrents.org/vombatkere070513.htm"
  }
},
{
  "type": "node",
  "id": 6320487129,
  "lat": 35.2991308,
  "lon": 78.0590558,
  "tags": {
    "landuse": "military",
    "military": "barracks",
    "name": "5390前哨",
    "name:en": "5390 Post"
  }
},
{
  "type": "node",
  "id": 6359918915,
  "lat": 34.3297181,
  "lon": 79.1099406,
  "tags": {
    "alt_name:en": "Mobdo La base",
    "landuse": "military",
    "name": "空喀山口哨卡",
    "name:en": "Kongka Shankou base",
    "name:zh-Latn-pinyin": "Kōng kā shānkǒu shàoqiǎ",
    "place": "locality"
  }
},
{
  "type": "node",
  "id": 6371911783,
  "lat": 27.7448068,
  "lon": 88.7778613,
  "tags": {
    "military": "yes"
  }
},
{
  "type": "node",
  "id": 6517788173,
  "lat": 27.3156025,
  "lon": 88.8296191,
  "tags": {
    "landuse": "military",
    "military": "barracks",
    "name:zh": "尼都拉"
  }
},
{
  "type": "node",
  "id": 6672800669,
  "lat": 32.9050177,
  "lon": 79.2005400,
  "tags": {
    "landuse": "military",
    "military": "base",
    "name": "Fukche camp",
    "note": "This  locale has a traditional name of Tashigang"
  }
},
{
  "type": "node",
  "id": 6738153200,
  "lat": 29.0627904,
  "lon": 95.6183085,
  "tags": {
    "alt_name": "Andra La Post",
    "landuse": "military",
    "military": "barracks",
    "name": "Andrala Omkar Post",
    "name:en": "Andrala Omkar Post",
    "name:zh": "安扎拉-奥姆卡尔前哨",
    "name:zh-Latn-pinyin": "Ān zhā lā-ào mǔ kǎ'ěr qiánshào"
  }
},
{
  "type": "node",
  "id": 7070924816,
  "lat": 27.7012076,
  "lon": 85.3538224,
  "tags": {
    "military": "checkpoint"
  }
},
{
  "type": "node",
  "id": 7070924820,
  "lat": 27.7011838,
  "lon": 85.3538991,
  "tags": {
    "military": "checkpoint"
  }
},
{
  "type": "node",
  "id": 7081691454,
  "lat": 29.3730399,
  "lon": 83.9988905,
  "tags": {
    "military": "office",
    "name": "昆木加哨所"
  }
},
{
  "type": "node",
  "id": 7106518910,
  "lat": 34.2979745,
  "lon": 78.8948860,
  "tags": {
    "landuse": "military",
    "military": "barracks",
    "name": "Karam Singh Post",
    "source": "http://bprd.nic.in/WriteReadData/CMS/Spl.%20issue%20of%20IPJ.pdf"
  }
},
{
  "type": "node",
  "id": 7555627160,
  "lat": 33.7406141,
  "lon": 78.7466322,
  "tags": {
    "military": "checkpoint",
    "name": "Dhan Singh Thapa Post",
    "source": "https://indianexpress.com/article/explained/india-china-conflict-in-ladakh-the-importance-of-the-pangong-tso-lake-6419377/"
  }
},
{
  "type": "node",
  "id": 7649297813,
  "lat": 33.3694817,
  "lon": 79.7092873,
  "tags": {
    "military": "barracks",
    "name": "日土兵站",
    "name:en": "Rutog Army Barracks",
    "name:zh-Latn-pinyin": "Rì tǔ bīngzhàn"
  }
},
{
  "type": "node",
  "id": 7833637987,
  "lat": 30.6798731,
  "lon": 79.8793465,
  "tags": {
    "military": "barracks",
    "name": "Dhauli"
  }
},
{
  "type": "node",
  "id": 7833637988,
  "lat": 30.6990851,
  "lon": 79.8853754,
  "tags": {
    "military": "barracks",
    "name": "Burans"
  }
},
{
  "type": "node",
  "id": 7998431302,
  "lat": 26.2212337,
  "lon": 94.8127770,
  "tags": {
    "military": "office",
    "name": "Assam Rifles"
  }
},
{
  "type": "node",
  "id": 8070681915,
  "lat": 33.7750402,
  "lon": 78.7639738,
  "tags": {
    "military": "checkpoint",
    "name": "5184驻勤点"
  }
},
{
  "type": "node",
  "id": 8266418961,
  "lat": 28.9550523,
  "lon": 82.8917679,
  "tags": {
    "military": "barracks",
    "name": "Bhadaley Army Barrack",
    "source": "yil2020"
  }
},
{
  "type": "node",
  "id": 8267184167,
  "lat": 28.9729485,
  "lon": 82.8739634,
  "tags": {
    "military": "barracks",
    "name": "Army Barrack",
    "source": "yil2020"
  }
},
{
  "type": "node",
  "id": 8856488871,
  "lat": 35.1482120,
  "lon": 78.0991432,
  "tags": {
    "military": "checkpoint",
    "name": "India Burtsa Nala camp"
  }
},
{
  "type": "node",
  "id": 8870845560,
  "lat": 34.3419562,
  "lon": 79.0921086,
  "tags": {
    "building": "bunker",
    "military": "bunker"
  }
},
{
  "type": "node",
  "id": 8870845561,
  "lat": 34.3420625,
  "lon": 79.0915936,
  "tags": {
    "building": "bunker",
    "military": "bunker"
  }
},
{
  "type": "node",
  "id": 8870845562,
  "lat": 34.3409581,
  "lon": 79.0942901,
  "tags": {
    "building": "bunker",
    "military": "bunker"
  }
},
{
  "type": "node",
  "id": 8870845563,
  "lat": 34.3415073,
  "lon": 79.0928847,
  "tags": {
    "building": "bunker",
    "military": "bunker"
  }
},
{
  "type": "node",
  "id": 8870845564,
  "lat": 34.3413154,
  "lon": 79.0933961,
  "tags": {
    "building": "bunker",
    "military": "bunker"
  }
},
{
  "type": "node",
  "id": 8870845565,
  "lat": 34.3411530,
  "lon": 79.0938646,
  "tags": {
    "building": "bunker",
    "military": "bunker"
  }
},
{
  "type": "node",
  "id": 8887703960,
  "lat": 33.3931224,
  "lon": 79.7763548,
  "tags": {
    "military": "checkpoint"
  }
},
{
  "type": "node",
  "id": 8887703963,
  "lat": 33.3942681,
  "lon": 79.7790779,
  "tags": {
    "military": "checkpoint"
  }
},
{
  "type": "node",
  "id": 8920532657,
  "lat": 33.3989857,
  "lon": 79.7860671,
  "tags": {
    "military": "checkpoint"
  }
},
{
  "type": "node",
  "id": 8920540683,
  "lat": 33.3951870,
  "lon": 79.7821445,
  "tags": {
    "military": "checkpoint"
  }
},
{
  "type": "node",
  "id": 8920540742,
  "lat": 33.4012572,
  "lon": 79.8098500,
  "tags": {
    "military": "checkpoint"
  }
},
{
  "type": "node",
  "id": 8920540969,
  "lat": 33.3928700,
  "lon": 79.7764762,
  "tags": {
    "military": "checkpoint"
  }
},
{
  "type": "node",
  "id": 8920540970,
  "lat": 33.3924720,
  "lon": 79.7748250,
  "tags": {
    "military": "checkpoint"
  }
},
{
  "type": "node",
  "id": 8920540971,
  "lat": 33.3945023,
  "lon": 79.7817278,
  "tags": {
    "military": "checkpoint"
  }
},
{
  "type": "node",
  "id": 8920581048,
  "lat": 33.5360535,
  "lon": 79.9273707,
  "tags": {
    "military": "checkpoint"
  }
},
{
  "type": "node",
  "id": 8920581091,
  "lat": 33.5301473,
  "lon": 79.9327296,
  "tags": {
    "building": "bunker",
    "military": "bunker"
  }
},
{
  "type": "node",
  "id": 8920657186,
  "lat": 33.4854658,
  "lon": 79.0122044,
  "tags": {
    "building": "bunker",
    "military": "bunker"
  }
},
{
  "type": "node",
  "id": 8920657187,
  "lat": 33.4848415,
  "lon": 79.0129585,
  "tags": {
    "building": "bunker",
    "military": "bunker"
  }
},
{
  "type": "node",
  "id": 8920657188,
  "lat": 33.4867095,
  "lon": 79.0135085,
  "tags": {
    "building": "bunker",
    "military": "bunker"
  }
},
{
  "type": "node",
  "id": 8920657189,
  "lat": 33.4849314,
  "lon": 79.0121987,
  "tags": {
    "building": "bunker",
    "military": "bunker"
  }
},
{
  "type": "node",
  "id": 8920657190,
  "lat": 33.4870500,
  "lon": 79.0126523,
  "tags": {
    "building": "bunker",
    "military": "bunker"
  }
},
{
  "type": "node",
  "id": 8920657191,
  "lat": 33.4876790,
  "lon": 79.0127884,
  "tags": {
    "building": "bunker",
    "military": "bunker"
  }
},
{
  "type": "node",
  "id": 8920657196,
  "lat": 33.4720774,
  "lon": 79.0084145,
  "tags": {
    "building": "bunker",
    "military": "bunker"
  }
},
{
  "type": "node",
  "id": 8995744887,
  "lat": 28.4230252,
  "lon": 92.4741592,
  "tags": {
    "building": "bunker",
    "military": "bunker"
  }
},
{
  "type": "node",
  "id": 8995744888,
  "lat": 28.4231785,
  "lon": 92.4739257,
  "tags": {
    "building": "bunker",
    "military": "bunker"
  }
},
{
  "type": "node",
  "id": 8995744889,
  "lat": 28.4233219,
  "lon": 92.4737218,
  "tags": {
    "building": "bunker",
    "military": "bunker"
  }
},
{
  "type": "node",
  "id": 8995744890,
  "lat": 28.4231165,
  "lon": 92.4731360,
  "tags": {
    "building": "bunker",
    "military": "bunker"
  }
},
{
  "type": "node",
  "id": 8995744891,
  "lat": 28.4234947,
  "lon": 92.4727542,
  "tags": {
    "building": "bunker",
    "military": "bunker"
  }
},
{
  "type": "node",
  "id": 8995744892,
  "lat": 28.4237066,
  "lon": 92.4725243,
  "tags": {
    "building": "bunker",
    "military": "bunker"
  }
},
{
  "type": "node",
  "id": 8995744893,
  "lat": 28.4238338,
  "lon": 92.4727912,
  "tags": {
    "building": "bunker",
    "military": "bunker"
  }
},
{
  "type": "node",
  "id": 8995744894,
  "lat": 28.4226405,
  "lon": 92.4738626,
  "tags": {
    "building": "bunker",
    "military": "bunker"
  }
},
{
  "type": "node",
  "id": 8995744895,
  "lat": 28.4222362,
  "lon": 92.4741518,
  "tags": {
    "building": "bunker",
    "military": "bunker"
  }
},
{
  "type": "node",
  "id": 8995744896,
  "lat": 28.4226079,
  "lon": 92.4745299,
  "tags": {
    "building": "bunker",
    "military": "bunker"
  }
},
{
  "type": "node",
  "id": 8995744897,
  "lat": 28.4241338,
  "lon": 92.4726133,
  "tags": {
    "building": "bunker",
    "military": "bunker"
  }
},
{
  "type": "node",
  "id": 9018618676,
  "lat": 27.4639113,
  "lon": 83.1291676,
  "tags": {
    "military": "barracks",
    "name": "Armed Police Force"
  }
},
{
  "type": "node",
  "id": 9046297532,
  "lat": 32.3495151,
  "lon": 79.9731648,
  "tags": {
    "military": "checkpoint"
  }
},
{
  "type": "node",
  "id": 9051245134,
  "lat": 32.5688716,
  "lon": 80.0604567,
  "tags": {
    "military": "training_area"
  }
},
{
  "type": "node",
  "id": 9051245395,
  "lat": 32.4201673,
  "lon": 80.0132589,
  "tags": {
    "military": "checkpoint"
  }
},
{
  "type": "node",
  "id": 9051298830,
  "lat": 32.5140314,
  "lon": 79.6159723,
  "tags": {
    "building": "bunker",
    "military": "bunker"
  }
},
{
  "type": "node",
  "id": 9051298831,
  "lat": 32.5159818,
  "lon": 79.6176244,
  "tags": {
    "building": "bunker",
    "military": "bunker"
  }
},
{
  "type": "node",
  "id": 9051298832,
  "lat": 32.5158393,
  "lon": 79.6183754,
  "tags": {
    "building": "bunker",
    "military": "bunker"
  }
},
{
  "type": "node",
  "id": 9051298833,
  "lat": 32.5156335,
  "lon": 79.6186457,
  "tags": {
    "building": "bunker",
    "military": "bunker"
  }
},
{
  "type": "node",
  "id": 9051298842,
  "lat": 32.5202359,
  "lon": 79.6203778,
  "tags": {
    "building": "bunker",
    "military": "bunker"
  }
},
{
  "type": "node",
  "id": 9051460484,
  "lat": 32.6656780,
  "lon": 79.5694593,
  "tags": {
    "building": "bunker",
    "military": "bunker"
  }
},
{
  "type": "node",
  "id": 9051460503,
  "lat": 32.6642783,
  "lon": 79.5695618,
  "tags": {
    "building": "bunker",
    "military": "bunker"
  }
},
{
  "type": "node",
  "id": 9051460546,
  "lat": 32.6609310,
  "lon": 79.5720094,
  "tags": {
    "military": "checkpoint"
  }
},
{
  "type": "node",
  "id": 9051460555,
  "lat": 32.6619332,
  "lon": 79.5703474,
  "tags": {
    "building": "bunker",
    "military": "bunker"
  }
},
{
  "type": "node",
  "id": 9051460614,
  "lat": 32.6631597,
  "lon": 79.5708505,
  "tags": {
    "building": "bunker",
    "military": "bunker"
  }
},
{
  "type": "node",
  "id": 9051461018,
  "lat": 32.6049553,
  "lon": 79.6413279,
  "tags": {
    "building": "bunker",
    "military": "bunker"
  }
},
{
  "type": "node",
  "id": 9051461019,
  "lat": 32.6054415,
  "lon": 79.6418909,
  "tags": {
    "building": "bunker",
    "military": "bunker"
  }
},
{
  "type": "node",
  "id": 9051461020,
  "lat": 32.6058002,
  "lon": 79.6421700,
  "tags": {
    "building": "bunker",
    "military": "bunker"
  }
},
{
  "type": "node",
  "id": 9051461021,
  "lat": 32.6046684,
  "lon": 79.6409920,
  "tags": {
    "building": "bunker",
    "military": "bunker"
  }
},
{
  "type": "node",
  "id": 9051461022,
  "lat": 32.6041344,
  "lon": 79.6412806,
  "tags": {
    "building": "bunker",
    "military": "bunker"
  }
},
{
  "type": "node",
  "id": 9051461023,
  "lat": 32.6034449,
  "lon": 79.6439393,
  "tags": {
    "building": "bunker",
    "military": "bunker"
  }
},
{
  "type": "node",
  "id": 9051461024,
  "lat": 32.6040467,
  "lon": 79.6464703,
  "tags": {
    "building": "bunker",
    "military": "bunker"
  }
},
{
  "type": "node",
  "id": 9051461025,
  "lat": 32.6044532,
  "lon": 79.6469339,
  "tags": {
    "building": "bunker",
    "military": "bunker"
  }
},
{
  "type": "node",
  "id": 9051461026,
  "lat": 32.6052224,
  "lon": 79.6449801,
  "tags": {
    "building": "bunker",
    "military": "bunker"
  }
},
{
  "type": "node",
  "id": 9051461027,
  "lat": 32.6057404,
  "lon": 79.6433953,
  "tags": {
    "building": "bunker",
    "military": "bunker"
  }
},
{
  "type": "node",
  "id": 9051461028,
  "lat": 32.6051905,
  "lon": 79.6439913,
  "tags": {
    "building": "bunker",
    "military": "bunker"
  }
},
{
  "type": "node",
  "id": 9051461029,
  "lat": 32.6015837,
  "lon": 79.6454059,
  "tags": {
    "building": "bunker",
    "military": "bunker"
  }
},
{
  "type": "node",
  "id": 9094039765,
  "lat": 28.0620338,
  "lon": 81.5232616,
  "tags": {
    "addr:city": "khajura RM",
    "addr:place": "ward-1 chhoti line",
    "contact:phone": "9864787393",
    "military": "office",
    "name": "army camp",
    "operator:type": "public"
  }
},
{
  "type": "node",
  "id": 9184319022,
  "lat": 28.9132833,
  "lon": 83.8213734,
  "tags": {
    "military": "checkpoint"
  }
},
{
  "type": "node",
  "id": 9196937067,
  "lat": 27.7406655,
  "lon": 89.1387054,
  "tags": {
    "military": "checkpoint"
  }
},
{
  "type": "node",
  "id": 9196958482,
  "lat": 27.7385967,
  "lon": 89.1383499,
  "tags": {
    "military": "yes"
  }
},
{
  "type": "node",
  "id": 9196958592,
  "lat": 27.7381405,
  "lon": 89.1368867,
  "tags": {
    "man_made": "tower",
    "military": "yes",
    "tower:type": "communication"
  }
},
{
  "type": "node",
  "id": 9238236431,
  "lat": 28.1924582,
  "lon": 82.1266362,
  "tags": {
    "addr:city": "BABAI RM",
    "addr:housenumber": "HAPURE",
    "addr:street": "BABAI 4 DANG",
    "contact:phone": "9803011161",
    "landuse": "military",
    "military": "danger_area",
    "name": "Dhan Prashad dangi"
  }
},
{
  "type": "node",
  "id": 9251865670,
  "lat": 28.4758879,
  "lon": 81.7846475,
  "tags": {
    "addr:city": "Lekbeshi",
    "addr:place": "Kaabe Khola",
    "description": "Availibility of Helipad",
    "landuse": "military",
    "military": "training_area",
    "name": "Pritana Uttar Paschim Taalim Shikshalaya",
    "operator:type": "government"
  }
},
{
  "type": "node",
  "id": 9260531804,
  "lat": 28.6076831,
  "lon": 81.5737218,
  "tags": {
    "addr:city": "Birendranagar",
    "addr:place": "Bangesimal -02",
    "contact:phone": "083412094",
    "military": "office",
    "name": "Nepal Armed Force - Maheshowri Bahini",
    "opening_hours": "24/7",
    "operator:type": "government"
  }
},
{
  "type": "node",
  "id": 9271063355,
  "lat": 28.5847498,
  "lon": 81.6390087,
  "tags": {
    "military": "office",
    "name": "Shree No. 2 Rajpal GGan",
    "opening_hours": "24/7",
    "operator": "Sonaki Gurung",
    "operator:type": "government"
  }
},
{
  "type": "node",
  "id": 9271115444,
  "lat": 28.5818704,
  "lon": 81.6355086,
  "tags": {
    "addr:city": "Birendranagar",
    "addr:place": "Padampur-12",
    "contact:phone": "9858070011",
    "description": "Blood donation",
    "military": "office",
    "name": "Kali Barun Gan",
    "operator": "Chandra Shekhar Kapri",
    "operator:type": "government"
  }
},
{
  "type": "node",
  "id": 9272049809,
  "lat": 28.5869769,
  "lon": 81.6348681,
  "tags": {
    "addr:city": "Birendranagar",
    "addr:place": "NauloTole-12",
    "military": "office",
    "name": "BimanSthal Suraksha",
    "opening_hours": "24/7",
    "operator:type": "government"
  }
},
{
  "type": "node",
  "id": 9288095723,
  "lat": 27.8393542,
  "lon": 82.7549289,
  "tags": {
    "addr:city": "भालुवाङ",
    "addr:housenumber": "राप्ती गाउँपालिका ०१",
    "addr:street": "Mahendra Highway",
    "landuse": "military",
    "military": "range",
    "name": "ज्वालामाई सशत्र प्रहरी बल"
  }
},
{
  "type": "node",
  "id": 9289214271,
  "lat": 27.8292647,
  "lon": 82.6485112,
  "tags": {
    "addr:city": "राप्ती गाउँपालिका दाङ",
    "addr:place": "राप्ती ७",
    "addr:street": "छोट्की सिसंहनिया",
    "landuse": "military",
    "military": "danger_area",
    "name": "दुर्घटना क्षेत्र"
  }
},
{
  "type": "node",
  "id": 9289308930,
  "lat": 27.8496456,
  "lon": 82.6286844,
  "tags": {
    "addr:city": "राप्ती गाउँपालिका दाङ",
    "addr:housenumber": "राप्ती ५",
    "addr:street": "पहरुवा",
    "landuse": "military",
    "military": "danger_area",
    "name": "डोरही खोला पुल बाढी प्रभावित क्षेत्र"
  }
},
{
  "type": "node",
  "id": 9289992178,
  "lat": 27.8375532,
  "lon": 82.6225286,
  "tags": {
    "landuse": "military",
    "military": "danger_area",
    "name": "दुर्घटना क्षेत्र"
  }
},
{
  "type": "node",
  "id": 9290005366,
  "lat": 27.8357142,
  "lon": 82.6217351,
  "tags": {
    "landuse": "military",
    "military": "danger_area",
    "name": "दर्घटना क्षेत्र"
  }
},
{
  "type": "node",
  "id": 9297950182,
  "lat": 27.2691425,
  "lon": 97.4323515,
  "tags": {
    "military": "yes"
  }
},
{
  "type": "node",
  "id": 9297950183,
  "lat": 27.2690124,
  "lon": 97.4326387,
  "tags": {
    "building": "bunker",
    "military": "bunker"
  }
},
{
  "type": "node",
  "id": 9297950184,
  "lat": 27.2692260,
  "lon": 97.4328603,
  "tags": {
    "building": "bunker",
    "military": "bunker"
  }
},
{
  "type": "node",
  "id": 9360975134,
  "lat": 33.8385806,
  "lon": 78.3241870,
  "tags": {
    "aeroway": "aerodrome",
    "description": "Advanced Landing Ground",
    "landuse": "military",
    "military": "airfield",
    "name": "Parma Valley ALG",
    "wikidata": "Q110247961"
  }
},
{
  "type": "node",
  "id": 9449407744,
  "lat": 26.4372057,
  "lon": 92.9960234,
  "tags": {
    "military": "checkpoint"
  }
},
{
  "type": "node",
  "id": 9449431924,
  "lat": 26.4732970,
  "lon": 92.9356102,
  "tags": {
    "military": "checkpoint"
  }
},
{
  "type": "node",
  "id": 9449431930,
  "lat": 26.4715119,
  "lon": 92.9341283,
  "tags": {
    "military": "checkpoint"
  }
},
{
  "type": "node",
  "id": 9449431950,
  "lat": 26.4768106,
  "lon": 92.9384672,
  "tags": {
    "military": "checkpoint"
  }
},
{
  "type": "node",
  "id": 9449502667,
  "lat": 26.2655548,
  "lon": 91.7376121,
  "tags": {
    "military": "checkpoint"
  }
},
{
  "type": "node",
  "id": 9526708518,
  "lat": 27.7050750,
  "lon": 83.2716790,
  "tags": {
    "addr:municipality": "sainamaina_municipality",
    "addr:province": "lumbini",
    "military": "training_area",
    "name": "Yekikrit Army Training center",
    "name:en": "Yekikrit Army Training center"
  }
},
{
  "type": "node",
  "id": 9532048587,
  "lat": 27.5058224,
  "lon": 89.8710076,
  "tags": {
    "landuse": "military",
    "military": "training_area"
  }
},
{
  "type": "node",
  "id": 9939726741,
  "lat": 27.8135712,
  "lon": 91.8619393,
  "tags": {
    "landuse": "military",
    "military": "base"
  }
},
{
  "type": "node",
  "id": 9939739744,
  "lat": 27.7739675,
  "lon": 91.7595027,
  "tags": {
    "landuse": "military",
    "military": "base"
  }
},
{
  "type": "node",
  "id": 9942622892,
  "lat": 27.2957497,
  "lon": 88.9142055,
  "tags": {
    "landuse": "military",
    "military": "base"
  }
},
{
  "type": "node",
  "id": 10005154444,
  "lat": 35.3428219,
  "lon": 78.1484731,
  "tags": {
    "military": "barracks",
    "name:en": "Point 5500",
    "ref": "5500",
    "source": "Sandhu, 1962 from the other side of the hill, p.46"
  }
},
{
  "type": "node",
  "id": 10017313511,
  "lat": 27.7423611,
  "lon": 85.3331207,
  "tags": {
    "landuse": "military",
    "military": "training_area",
    "name": "SALUTE GORKHA"
  }
},
{
  "type": "node",
  "id": 10030791995,
  "lat": 27.0839576,
  "lon": 84.7565174,
  "tags": {
    "landuse": "military",
    "military": "base",
    "name": "APF Pokhariya"
  }
},
{
  "type": "node",
  "id": 10033757578,
  "lat": 27.7370183,
  "lon": 85.3221605,
  "tags": {
    "landuse": "military",
    "military": "training_area",
    "name": "Great Gurkhas Education and Training Center"
  }
},
{
  "type": "node",
  "id": 10208876043,
  "lat": 26.8351964,
  "lon": 91.2533729,
  "tags": {
    "landuse": "military",
    "military": "base",
    "name": "Nganglam RBA Base"
  }
},
{
  "type": "node",
  "id": 10797205289,
  "lat": 29.1127396,
  "lon": 94.4168071,
  "tags": {
    "military": "checkpoint"
  }
},
{
  "type": "node",
  "id": 10855689551,
  "lat": 27.7659010,
  "lon": 91.9901521,
  "tags": {
    "military": "checkpoint",
    "name": "FWD PP"
  }
},
{
  "type": "node",
  "id": 10967378646,
  "lat": 27.9673260,
  "lon": 85.3683760,
  "tags": {
    "military": "barracks",
    "name": "मालभन्ज्याङ् आर्मी ब्यारेक",
    "name:en": "Maalabhanjyang Army Barack",
    "name:ne": "मालभन्ज्याङ् आर्मी ब्यारेक"
  }
},
{
  "type": "node",
  "id": 11068984115,
  "lat": 29.0004150,
  "lon": 79.4043753,
  "tags": {
    "government": "yes",
    "landuse": "military",
    "military": "training_area",
    "name": "District Homeguard Training Center"
  }
},
{
  "type": "node",
  "id": 11068984116,
  "lat": 29.0000961,
  "lon": 79.4051032,
  "tags": {
    "military": "office",
    "name": "District Home Guard Office"
  }
},
{
  "type": "node",
  "id": 11115611626,
  "lat": 26.7981019,
  "lon": 91.5036084,
  "tags": {
    "landuse": "military",
    "military": "range",
    "name": "Transit camp, RBA"
  }
},
{
  "type": "node",
  "id": 11287859874,
  "lat": 33.5239286,
  "lon": 79.9334008,
  "tags": {
    "building": "bunker",
    "military": "bunker"
  }
},
{
  "type": "node",
  "id": 11287859875,
  "lat": 33.5231493,
  "lon": 79.9316024,
  "tags": {
    "building": "bunker",
    "military": "bunker"
  }
},
{
  "type": "node",
  "id": 11287859880,
  "lat": 33.5232550,
  "lon": 79.9317338,
  "tags": {
    "building": "bunker",
    "military": "bunker"
  }
},
{
  "type": "node",
  "id": 11287859881,
  "lat": 33.5234325,
  "lon": 79.9318742,
  "tags": {
    "building": "bunker",
    "military": "bunker"
  }
},
{
  "type": "node",
  "id": 11287859882,
  "lat": 33.5235684,
  "lon": 79.9320011,
  "tags": {
    "building": "bunker",
    "military": "bunker"
  }
},
{
  "type": "node",
  "id": 11287859883,
  "lat": 33.5236817,
  "lon": 79.9321687,
  "tags": {
    "building": "bunker",
    "military": "bunker"
  }
},
{
  "type": "node",
  "id": 11287859884,
  "lat": 33.5239649,
  "lon": 79.9323227,
  "tags": {
    "building": "bunker",
    "military": "bunker"
  }
},
{
  "type": "node",
  "id": 11287859885,
  "lat": 33.5239800,
  "lon": 79.9325310,
  "tags": {
    "building": "bunker",
    "military": "bunker"
  }
},
{
  "type": "node",
  "id": 11287859886,
  "lat": 33.5239083,
  "lon": 79.9326986,
  "tags": {
    "building": "bunker",
    "military": "bunker"
  }
},
{
  "type": "node",
  "id": 11287859887,
  "lat": 33.5238705,
  "lon": 79.9328979,
  "tags": {
    "building": "bunker",
    "military": "bunker"
  }
},
{
  "type": "node",
  "id": 11287859888,
  "lat": 33.5238139,
  "lon": 79.9330474,
  "tags": {
    "building": "bunker",
    "military": "bunker"
  }
},
{
  "type": "node",
  "id": 11287859889,
  "lat": 33.5238554,
  "lon": 79.9332241,
  "tags": {
    "building": "bunker",
    "military": "bunker"
  }
},
{
  "type": "node",
  "id": 11287859890,
  "lat": 33.5243388,
  "lon": 79.9331561,
  "tags": {
    "building": "bunker",
    "military": "bunker"
  }
},
{
  "type": "node",
  "id": 11287859891,
  "lat": 33.5241839,
  "lon": 79.9331154,
  "tags": {
    "building": "bunker",
    "military": "bunker"
  }
},
{
  "type": "node",
  "id": 11287859892,
  "lat": 33.5242897,
  "lon": 79.9333011,
  "tags": {
    "building": "bunker",
    "military": "bunker"
  }
},
{
  "type": "node",
  "id": 11287859893,
  "lat": 33.5240404,
  "lon": 79.9336000,
  "tags": {
    "building": "bunker",
    "military": "bunker"
  }
},
{
  "type": "node",
  "id": 11287859894,
  "lat": 33.5240971,
  "lon": 79.9337223,
  "tags": {
    "building": "bunker",
    "military": "bunker"
  }
},
{
  "type": "node",
  "id": 11287859895,
  "lat": 33.5242255,
  "lon": 79.9338718,
  "tags": {
    "building": "bunker",
    "military": "bunker"
  }
},
{
  "type": "node",
  "id": 11287859896,
  "lat": 33.5246371,
  "lon": 79.9336272,
  "tags": {
    "building": "bunker",
    "military": "bunker"
  }
},
{
  "type": "node",
  "id": 11287859897,
  "lat": 33.5246711,
  "lon": 79.9334415,
  "tags": {
    "building": "bunker",
    "military": "bunker"
  }
},
{
  "type": "node",
  "id": 11287859898,
  "lat": 33.5247202,
  "lon": 79.9332286,
  "tags": {
    "building": "bunker",
    "military": "bunker"
  }
},
{
  "type": "node",
  "id": 11287859899,
  "lat": 33.5247390,
  "lon": 79.9330248,
  "tags": {
    "building": "bunker",
    "military": "bunker"
  }
},
{
  "type": "node",
  "id": 11287859900,
  "lat": 33.5247541,
  "lon": 79.9328028,
  "tags": {
    "building": "bunker",
    "military": "bunker"
  }
},
{
  "type": "node",
  "id": 11287859901,
  "lat": 33.5248221,
  "lon": 79.9325809,
  "tags": {
    "building": "bunker",
    "military": "bunker"
  }
},
{
  "type": "node",
  "id": 11287859902,
  "lat": 33.5248788,
  "lon": 79.9324268,
  "tags": {
    "building": "bunker",
    "military": "bunker"
  }
},
{
  "type": "node",
  "id": 11287859903,
  "lat": 33.5249279,
  "lon": 79.9322094,
  "tags": {
    "building": "bunker",
    "military": "bunker"
  }
},
{
  "type": "node",
  "id": 11287859904,
  "lat": 33.5249807,
  "lon": 79.9320328,
  "tags": {
    "building": "bunker",
    "military": "bunker"
  }
},
{
  "type": "node",
  "id": 11287859905,
  "lat": 33.5250374,
  "lon": 79.9318017,
  "tags": {
    "building": "bunker",
    "military": "bunker"
  }
},
{
  "type": "node",
  "id": 11287859906,
  "lat": 33.5250638,
  "lon": 79.9316613,
  "tags": {
    "building": "bunker",
    "military": "bunker"
  }
},
{
  "type": "node",
  "id": 11287859907,
  "lat": 33.5251506,
  "lon": 79.9314937,
  "tags": {
    "building": "bunker",
    "military": "bunker"
  }
},
{
  "type": "node",
  "id": 11356011420,
  "lat": 27.1049501,
  "lon": 95.1659465,
  "tags": {
    "landuse": "military",
    "military": "base"
  }
},
{
  "type": "node",
  "id": 11416683005,
  "lat": 29.6138848,
  "lon": 78.5576964,
  "tags": {
    "military": "checkpoint",
    "name": "Gujjar Shot Forest Check Pointz"
  }
},
{
  "type": "node",
  "id": 11497123236,
  "lat": 26.2978603,
  "lon": 88.9814524,
  "tags": {
    "landuse": "military",
    "military": "base",
    "name": "BGB Camp"
  }
},
{
  "type": "node",
  "id": 11813778832,
  "lat": 28.1891373,
  "lon": 83.9610253,
  "tags": {
    "landuse": "military",
    "military": "training_area",
    "name": "Bright Future Lahure Training Institute",
    "phone": "9745451041"
  }
},
{
  "type": "node",
  "id": 11992491956,
  "lat": 29.4575072,
  "lon": 82.1292969,
  "tags": {
    "military": "checkpoint",
    "name": "daba post"
  }
},
{
  "type": "node",
  "id": 12140851804,
  "lat": 34.3521881,
  "lon": 79.1441193,
  "tags": {
    "building": "bunker",
    "military": "bunker"
  }
},
{
  "type": "node",
  "id": 12140851805,
  "lat": 34.3528043,
  "lon": 79.1448511,
  "tags": {
    "building": "bunker",
    "military": "bunker"
  }
},
{
  "type": "node",
  "id": 12140851806,
  "lat": 34.3517531,
  "lon": 79.1450267,
  "tags": {
    "building": "bunker",
    "military": "bunker"
  }
},
{
  "type": "node",
  "id": 12140851807,
  "lat": 34.3506173,
  "lon": 79.1453268,
  "tags": {
    "building": "bunker",
    "military": "bunker"
  }
},
{
  "type": "node",
  "id": 12140851808,
  "lat": 34.3510402,
  "lon": 79.1443096,
  "tags": {
    "building": "bunker",
    "military": "bunker"
  }
},
{
  "type": "node",
  "id": 12140851809,
  "lat": 34.3499587,
  "lon": 79.1445364,
  "tags": {
    "building": "bunker",
    "military": "bunker"
  }
},
{
  "type": "node",
  "id": 12140851810,
  "lat": 34.3495358,
  "lon": 79.1455024,
  "tags": {
    "building": "bunker",
    "military": "bunker"
  }
},
{
  "type": "node",
  "id": 12140851811,
  "lat": 34.3503031,
  "lon": 79.1467830,
  "tags": {
    "building": "bunker",
    "military": "bunker"
  }
},
{
  "type": "node",
  "id": 12140851812,
  "lat": 34.3498560,
  "lon": 79.1478002,
  "tags": {
    "building": "bunker",
    "military": "bunker"
  }
},
{
  "type": "node",
  "id": 12140851813,
  "lat": 34.3495721,
  "lon": 79.1494101,
  "tags": {
    "building": "bunker",
    "military": "bunker"
  }
},
{
  "type": "node",
  "id": 12140851814,
  "lat": 34.3491854,
  "lon": 79.1469440,
  "tags": {
    "building": "bunker",
    "military": "bunker"
  }
},
{
  "type": "node",
  "id": 12140851815,
  "lat": 34.3487866,
  "lon": 79.1479978,
  "tags": {
    "building": "bunker",
    "military": "bunker"
  }
},
{
  "type": "node",
  "id": 12140851816,
  "lat": 34.3481402,
  "lon": 79.1472367,
  "tags": {
    "building": "bunker",
    "military": "bunker"
  }
},
{
  "type": "node",
  "id": 12140851817,
  "lat": 34.3488591,
  "lon": 79.1447487,
  "tags": {
    "building": "bunker",
    "military": "bunker"
  }
},
{
  "type": "node",
  "id": 12140851818,
  "lat": 34.3477112,
  "lon": 79.1482393,
  "tags": {
    "building": "bunker",
    "military": "bunker"
  }
},
{
  "type": "node",
  "id": 12140851819,
  "lat": 34.3470224,
  "lon": 79.1474563,
  "tags": {
    "building": "bunker",
    "military": "bunker"
  }
},
{
  "type": "node",
  "id": 12140851820,
  "lat": 34.3464666,
  "lon": 79.1484661,
  "tags": {
    "building": "bunker",
    "military": "bunker"
  }
},
{
  "type": "node",
  "id": 12169562974,
  "lat": 29.5016096,
  "lon": 90.9506211,
  "tags": {
    "military": "yes"
  }
},
{
  "type": "node",
  "id": 12175797659,
  "lat": 29.6522347,
  "lon": 91.0429360,
  "tags": {
    "military": "office",
    "name": "西藏军区拉萨综合仓库部队"
  }
},
{
  "type": "node",
  "id": 12175797660,
  "lat": 29.6515684,
  "lon": 91.0401135,
  "tags": {
    "military": "office",
    "name": "武警交通二总队四支队",
    "ref": "2"
  }
},
{
  "type": "node",
  "id": 12222674524,
  "lat": 29.2969691,
  "lon": 90.9673491,
  "tags": {
    "military": "cannon"
  }
},
{
  "type": "node",
  "id": 12222674525,
  "lat": 29.2967690,
  "lon": 90.9661531,
  "tags": {
    "military": "cannon"
  }
},
{
  "type": "node",
  "id": 12222674526,
  "lat": 29.2969393,
  "lon": 90.9658455,
  "tags": {
    "military": "cannon"
  }
},
{
  "type": "node",
  "id": 12222674527,
  "lat": 29.2966498,
  "lon": 90.9658894,
  "tags": {
    "military": "cannon"
  }
},
{
  "type": "node",
  "id": 12222674528,
  "lat": 29.2962326,
  "lon": 90.9669830,
  "tags": {
    "military": "cannon"
  }
},
{
  "type": "node",
  "id": 12222674529,
  "lat": 29.2961432,
  "lon": 90.9670513,
  "tags": {
    "military": "cannon"
  }
},
{
  "type": "node",
  "id": 12222674530,
  "lat": 29.2958707,
  "lon": 90.9680082,
  "tags": {
    "military": "cannon"
  }
},
{
  "type": "node",
  "id": 12222674531,
  "lat": 29.2967647,
  "lon": 90.9682815,
  "tags": {
    "military": "cannon"
  }
},
{
  "type": "node",
  "id": 12222674532,
  "lat": 29.2964327,
  "lon": 90.9677397,
  "tags": {
    "military": "cannon"
  }
},
{
  "type": "node",
  "id": 12500016682,
  "lat": 27.6990998,
  "lon": 89.1904210,
  "tags": {
    "military": "trench"
  }
},
{
  "type": "node",
  "id": 12500016683,
  "lat": 27.6988420,
  "lon": 89.1902454,
  "tags": {
    "military": "trench"
  }
},
{
  "type": "node",
  "id": 12500016690,
  "lat": 27.7006568,
  "lon": 89.1908795,
  "tags": {
    "military": "trench"
  }
},
{
  "type": "node",
  "id": 12500016691,
  "lat": 27.7034971,
  "lon": 89.1886758,
  "tags": {
    "military": "trench"
  }
},
{
  "type": "node",
  "id": 12500016692,
  "lat": 27.7039719,
  "lon": 89.1882587,
  "tags": {
    "military": "trench"
  }
},
{
  "type": "node",
  "id": 12500016693,
  "lat": 27.7042024,
  "lon": 89.1882479,
  "tags": {
    "military": "trench"
  }
},
{
  "type": "node",
  "id": 12500016694,
  "lat": 27.7038382,
  "lon": 89.1888826,
  "tags": {
    "military": "trench"
  }
},
{
  "type": "node",
  "id": 12500016695,
  "lat": 27.7080867,
  "lon": 89.1857346,
  "tags": {
    "military": "trench"
  }
},
{
  "type": "node",
  "id": 12500044629,
  "lat": 27.7055346,
  "lon": 89.1818207,
  "tags": {
    "military": "trench"
  }
},
{
  "type": "node",
  "id": 12500044630,
  "lat": 27.7054582,
  "lon": 89.1825925,
  "tags": {
    "military": "trench"
  }
},
{
  "type": "node",
  "id": 12500044631,
  "lat": 27.7053382,
  "lon": 89.1817698,
  "tags": {
    "military": "trench"
  }
},
{
  "type": "node",
  "id": 12518166310,
  "lat": 28.3483061,
  "lon": 97.0233315,
  "tags": {
    "military": "checkpoint"
  }
},
{
  "type": "node",
  "id": 12571241006,
  "lat": 35.3097535,
  "lon": 78.3113479,
  "tags": {
    "military": "cannon"
  }
},
{
  "type": "node",
  "id": 12591010931,
  "lat": 27.1414395,
  "lon": 78.0087967,
  "tags": {
    "landuse": "military",
    "military": "base",
    "name": "509 Army Base workshop"
  }
},
{
  "type": "node",
  "id": 12595679753,
  "lat": 27.1413445,
  "lon": 78.0085753,
  "tags": {
    "landuse": "military",
    "military": "base",
    "name": "CSD. unit run canteen"
  }
},
{
  "type": "node",
  "id": 12728809109,
  "lat": 27.8240967,
  "lon": 85.4484734,
  "tags": {
    "military": "checkpoint"
  }
},
{
  "type": "node",
  "id": 12834690468,
  "lat": 28.5059633,
  "lon": 93.1183375,
  "tags": {
    "military": "checkpoint",
    "name": "游客止步"
  }
},
{
  "type": "node",
  "id": 13089143748,
  "lat": 28.2042212,
  "lon": 96.5293436,
  "tags": {
    "military": "office",
    "name": "Border Roads Organisation unit"
  }
},
{
  "type": "node",
  "id": 13167755628,
  "lat": 26.9642696,
  "lon": 85.4231939,
  "tags": {
    "military": "base",
    "name": "ससस्त्र बेस क्याम्प"
  }
},
{
  "type": "node",
  "id": 13195256952,
  "lat": 29.2775446,
  "lon": 82.1853576,
  "tags": {
    "military": "checkpoint",
    "name": "Devidatta Gan"
  }
},
{
  "type": "node",
  "id": 13195262960,
  "lat": 29.2793108,
  "lon": 82.1893017,
  "tags": {
    "military": "checkpoint",
    "name": "24 No. Bahini"
  }
},
{
  "type": "way",
  "id": 34863658,
  "nodes": [
    408721790,
    408721789,
    408721788,
    408721787,
    408721785,
    408721784,
    408721783,
    408721782,
    408721780,
    408721779,
    408721778,
    408721777,
    408721775,
    408721774,
    408721773,
    408721772,
    408721770,
    408721769,
    408721768,
    408721566,
    408721568,
    408721569,
    408721570,
    408721572,
    408721573,
    408721574,
    408721576,
    408721577,
    408721578,
    408721579,
    408721581,
    408721582,
    408721583,
    408721584,
    408721586,
    408721587,
    408721588,
    408721589,
    408721591,
    408721592,
    408721593,
    408721594,
    408721596,
    408721597,
    408721598,
    408721599,
    408721601,
    9049693863,
    408721602,
    408721603,
    408721604,
    408721606,
    408721607,
    408721608,
    408721609,
    408721611,
    408721612,
    408721613,
    408721614,
    408721616,
    408721617,
    408721618,
    408721619,
    408721621,
    408721622,
    408721623,
    408721625,
    408721626,
    408721627,
    408721628,
    408721630,
    408721631,
    408721632,
    408721633,
    408721635,
    408721636,
    408721637,
    408721638,
    408721640,
    408721641,
    408721642,
    408721643,
    408721645,
    408721646,
    408721647,
    408721648,
    408721650,
    408721651,
    408721652,
    408721654,
    408721655,
    408721656,
    408721657,
    408721659,
    408721660,
    408721661,
    408721662,
    408721664,
    408721665,
    408721666,
    408721667,
    408721669,
    408721670,
    408721671,
    408721672,
    408721674,
    408721675,
    408721676,
    408721678,
    408721679,
    408721680,
    408721681,
    408721683,
    408721684,
    408721685,
    408721686,
    408721688,
    408721689,
    408721690,
    408721693,
    408721694,
    408721695,
    408721696,
    408721698,
    408721699,
    408721700,
    408721701,
    408721703,
    408721704,
    408721705,
    408721707,
    408721708,
    408721709,
    408721710,
    408721711,
    408721713,
    408721714,
    408721715,
    408721716,
    408721718,
    408721722,
    408721723,
    408721725,
    408721726,
    408721727,
    408721728,
    408721730,
    408721731,
    408721732,
    408721733,
    408721735,
    408721736,
    408721737,
    408721738,
    408721740,
    408721741,
    408721742,
    408721744,
    408721745,
    408721746,
    408721747,
    408721749,
    408721750,
    408721751,
    408721752,
    408721754,
    408721755,
    408721756,
    408721757,
    408721759,
    408721760,
    408721761,
    408721763,
    408721764,
    408721765,
    408721767,
    408721790
  ],
  "tags": {
    "aeroway": "aerodrome",
    "iata": "KNU",
    "icao": "VECX",
    "is_in:country": "India",
    "landuse": "military",
    "military": "airfield",
    "name": "Kanpur Chakeri Airport"
  }
},
{
  "type": "way",
  "id": 44952402,
  "nodes": [
    569949173,
    569949174,
    569949175,
    569949171,
    569949172,
    569949163,
    569949164,
    569949168,
    569949165,
    569949166,
    569949167,
    569949181,
    569949182,
    569949183,
    569949184,
    569949185,
    569949186,
    569949187,
    569949188,
    569949189,
    569949190,
    569949191,
    569949192,
    569949169,
    569949170,
    569950111,
    569949176,
    569949177,
    569949178,
    569949179,
    569949180,
    569949173
  ],
  "tags": {
    "landuse": "military"
  }
},
{
  "type": "way",
  "id": 44952602,
  "nodes": [
    569950116,
    569950117,
    569950118,
    569950128,
    569950129,
    569950130,
    569950131,
    569950105,
    569950108,
    569950109,
    569950110,
    569950115,
    569950116
  ],
  "tags": {
    "landuse": "military"
  }
},
{
  "type": "way",
  "id": 79497228,
  "nodes": [
    927997919,
    3587690890,
    3587690891,
    927997925,
    1200698982,
    3587757295,
    1200702315,
    1200717265,
    1200708735,
    1200704838,
    1200719471,
    1200714444,
    1200696561,
    1200706855,
    1200711457,
    1200706679,
    1200703626,
    1200696245,
    1200701080,
    1200703437,
    1200719811,
    927997923,
    1200701301,
    3587690892,
    3587757294,
    3587757299,
    3587757300,
    927997917,
    1200709136,
    3587757302,
    1200705168,
    3587757303,
    1200720396,
    3587757305,
    3587757304,
    1200714879,
    3587757301,
    3587757298,
    927997918,
    3587757297,
    1200699543,
    3587757296,
    3587757293,
    1200702567,
    13198198050,
    13198198051,
    13198198052,
    13198198053,
    13198198057,
    13198198056,
    13198198055,
    13198198054,
    3587690889,
    3587690888,
    3587690887,
    927997932,
    1200717746,
    927997931,
    3587690885,
    3587690884,
    3587690881,
    1200725400,
    3587690879,
    1200712111,
    3587690876,
    3587690874,
    3587690871,
    1200707120,
    3587690870,
    927997924,
    3587690866,
    3587690864,
    3587690865,
    927997920,
    3587690869,
    1200701530,
    3587690872,
    3587690873,
    1200703794,
    3587690875,
    1200721920,
    1200696779,
    3587690877,
    1200709423,
    927997916,
    3587690868,
    3587690867,
    927997914,
    1200703141,
    1200705402,
    1200700867,
    1200703279,
    1200698720,
    1200711151,
    1200716989,
    1200706544,
    1200696071,
    1200702199,
    1200713628,
    1200704634,
    3587690878,
    1200724547,
    3587690880,
    1200703142,
    1200719128,
    3587690882,
    3587690883,
    1200695939,
    1200708322,
    1200700719,
    1200710741,
    1200706383,
    1200699700,
    927997928,
    3587919913,
    1200725779,
    927997929,
    927997921,
    3587690886,
    927997919
  ],
  "tags": {
    "aeroway": "aerodrome",
    "barrier": "wall",
    "iata": "BEK",
    "icao": "VIBY",
    "landuse": "military",
    "military": "airfield",
    "name": "Bareilly Air Force Station",
    "name:ur": "بریلی ہوائی اڈا",
    "wikidata": "Q2788745"
  }
},
{
  "type": "way",
  "id": 81148059,
  "nodes": [
    1802839457,
    1802839456,
    3057210865,
    3057210866,
    3057180863,
    3057210868,
    3057210867,
    3057167625,
    3057167627,
    3057180864,
    1274190891,
    1274190890,
    949307746,
    1274190884,
    3057167620,
    1645445985,
    1804664183,
    1804664181,
    1274190879,
    1274190893,
    3057246499,
    1274190870,
    1802839457
  ],
  "tags": {
    "access": "private",
    "landuse": "military",
    "name": "Tundikhel",
    "surface": "grass"
  }
},
{
  "type": "way",
  "id": 96583772,
  "nodes": [
    1118729461,
    3807594261,
    3807594260,
    3807594259,
    3807594258,
    3807594257,
    3807593356,
    3807593355,
    1118732327,
    3807594263,
    3807594262,
    3807594266,
    3807594275,
    1118731297,
    1118730084,
    1118729461
  ],
  "tags": {
    "aeroway": "aerodrome",
    "iata": "TEI",
    "icao": "VETJ",
    "is_in:country": "India",
    "military": "airfield",
    "name": "Tezu"
  }
},
{
  "type": "way",
  "id": 97821817,
  "nodes": [
    1132310036,
    1132310817,
    1325796729,
    1325796731,
    1132310458,
    1325796732,
    1325796733,
    1325796734,
    1132310154,
    1325796736,
    1132310888,
    1132310622,
    1132310195,
    1132310043,
    1132310723,
    1325796747,
    1325796746,
    1325796745,
    1325796744,
    1325796743,
    1325796742,
    1325796741,
    1325796740,
    1325796739,
    1325796738,
    1325796737,
    1132310257,
    1325796735,
    1325796730,
    1132310082,
    1132310789,
    1132310363,
    1325796728,
    1132310123,
    1132310827,
    1132310523,
    1132310165,
    1132310010,
    1132310036
  ],
  "tags": {
    "aeroway": "aerodrome",
    "landuse": "military",
    "military": "airfield"
  }
},
{
  "type": "way",
  "id": 97828373,
  "nodes": [
    1132379054,
    1314633604,
    1314633608,
    1314633606,
    1314633607,
    1314633609,
    1314633612,
    1314633614,
    1314633616,
    3677345036,
    1132377282,
    1314633621,
    1314633623,
    1132376975,
    1314633625,
    1314633627,
    1314633628,
    1314633629,
    1314633632,
    1314633630,
    1314633631,
    1314633633,
    1314633634,
    1132376305,
    1132378945,
    1132378515,
    1132378043,
    1132377485,
    9995858260,
    9995858259,
    1132377166,
    9995858264,
    9995858263,
    1132376696,
    1132376029,
    1314633588,
    1132377809,
    1132377289,
    1132376993,
    1314633595,
    1132376345,
    1314633596,
    1132378960,
    3677344870,
    1314633598,
    1314633600,
    1132378532,
    1314633603,
    1132376722,
    1132379054
  ],
  "tags": {
    "landuse": "military"
  }
},
{
  "type": "way",
  "id": 97945321,
  "nodes": [
    1133640380,
    1133639773,
    1133640349,
    1133640504,
    1133640024,
    1133639844,
    1133640442,
    1133640568,
    1133640130,
    1133640292,
    1133639781,
    1133639958,
    1133640510,
    1380567779,
    1133640686,
    1133640221,
    1133640356,
    1133639852,
    1133640029,
    1133640575,
    1133640867,
    1133640299,
    1133640454,
    1133639969,
    1133640142,
    1133640728,
    1133639795,
    1133640181,
    1360462781,
    1133640326,
    1133639820,
    1133639995,
    1133640546,
    1380568855,
    1380569321,
    1380568439,
    1133640803,
    1380568905,
    1380569348,
    1380569680,
    1380570002,
    1380567928,
    1380568651,
    1133640272,
    1133640423,
    1133639917,
    1133640091,
    1133640616,
    1133640380
  ],
  "tags": {
    "aeroway": "aerodrome",
    "iata": "DIB",
    "icao": "VEMN",
    "landuse": "military",
    "military": "airfield"
  }
},
{
  "type": "way",
  "id": 98377935,
  "nodes": [
    1138143288,
    1138144340,
    1138149243,
    1138142477,
    1138147313,
    1138139618,
    1138143766,
    1138147221,
    1138138668,
    1138143221,
    1138147813,
    1138141843,
    1138144872,
    1138157675,
    1138142884,
    1138144712,
    1138157410,
    1138142601,
    1138147374,
    1138139864,
    1138144015,
    1138149020,
    1138142324,
    1138143704,
    1138148853,
    1138141948,
    1138145033,
    1138138422,
    1138143052,
    1138147714,
    1138141676,
    1138142836,
    1138147622,
    1138140063,
    1138144238,
    1138149184,
    1138143288
  ],
  "tags": {
    "landuse": "military",
    "name": "Sukna Cantonment"
  }
},
{
  "type": "way",
  "id": 99203958,
  "nodes": [
    1147539332,
    7139096875,
    12031053624,
    1147538285,
    1147538101,
    1147539402,
    1147538840,
    1147537163,
    1147539288,
    566965395,
    1147540091,
    1147537994,
    1147537764,
    7139096874,
    1147539118,
    1147538539,
    1147539933,
    1147538957,
    1147537225,
    1147539809,
    1147539332
  ],
  "tags": {
    "aeroway": "aerodrome",
    "iata": "GOP",
    "icao": "VEGK",
    "is_in:country": "India",
    "landuse": "military",
    "military": "airfield",
    "name": "Gorakhpur Air Force Station",
    "name:en": "Gorakhpur Airport"
  }
},
{
  "type": "way",
  "id": 99621788,
  "nodes": [
    1151913960,
    1151909760,
    1151914260,
    1151909934,
    1151914124,
    1151909800,
    1151914578,
    1151910125,
    1151909744,
    1151912701,
    1151909847,
    1151913873,
    1151909786,
    1151912894,
    1151910060,
    1151914042,
    1151912665,
    1151913927,
    1151909750,
    1151912973,
    1151914198,
    1151912809,
    1151909700,
    3786084975,
    3786084974,
    3786084972,
    3786084970,
    3786084968,
    3786084969,
    1151913960
  ],
  "tags": {
    "landuse": "military"
  }
},
{
  "type": "way",
  "id": 99621790,
  "nodes": [
    1151909803,
    1151909763,
    1151912833,
    1151910024,
    1151913983,
    4711587804,
    1151909840,
    1151913033,
    1151910206,
    1151914164,
    1151912773,
    1151909678,
    2239132573,
    1151913927,
    1151909750,
    1151912973,
    1151914198,
    1151912809,
    1151909700,
    3786084975,
    3786084974,
    3786084972,
    3786084970,
    3786084968,
    3786084969,
    1151913960,
    1151912797,
    11047994349,
    1151913949,
    1151909696,
    1151914187,
    1151909803
  ],
  "tags": {
    "aeroway": "aerodrome",
    "alt_name": "Gwalior Maharajpur Airport",
    "iata": "GWL",
    "icao": "VIGR",
    "is_in:country": "India",
    "landuse": "military",
    "military": "airfield",
    "name": "Gwalior Airport",
    "name:de": "Flughafen Gwalior",
    "name:es": "Aeropuerto de Gwalior",
    "name:fa": "فرودگاه گوالیور",
    "name:ur": "گوالیار ہوائی اڈا",
    "official_name": "Rajmata Vijaya Raje Scindia Air Terminal",
    "official_name:etymology:wikidata": "Q1452301",
    "wikidata": "Q2247561",
    "wikipedia": "en:Gwalior Airport"
  }
},
{
  "type": "way",
  "id": 116650292,
  "nodes": [
    1314562040,
    12134247816,
    12134247817,
    12134247818,
    12134247819,
    12134247820,
    12134247821,
    12134247822,
    12134247823,
    12134247824,
    12134247825,
    12134247826,
    12134247827,
    12134247828,
    12134247829,
    12134247830,
    12134247831,
    12134247832,
    12134247833,
    12134247741,
    12134247742,
    12134247744,
    12134247743,
    12134247745,
    3676757693,
    12134247834,
    12134247835,
    12134247836,
    12134247837,
    12134247838,
    12134247839,
    12134247840,
    12134247841,
    12134247842,
    12134247843,
    12134247844,
    12134247845,
    12134247846,
    12134247847,
    12134247848,
    12134247849,
    12134247850,
    12134247851,
    12134247852,
    12134247853,
    12134247854,
    12134247855,
    12134247856,
    12134247857,
    12134247858,
    12134247859,
    12134247860,
    12134247861,
    12134247862,
    12134247863,
    12134247864,
    12134247865,
    12134247866,
    12134247867,
    12134247868,
    12134247869,
    12134247870,
    12134247871,
    12134247872,
    12134247873,
    12134247874,
    12134247875,
    12134247876,
    12134247877,
    12134247878,
    12134247879,
    12134247880,
    12134247881,
    12134247882,
    12134247883,
    12134247884,
    12134247885,
    12134247886,
    12134247887,
    12134247888,
    12134247889,
    12134247890,
    12134247891,
    12134247892,
    12134247893,
    12134247894,
    12134247895,
    12134247896,
    12134247897,
    12134247898,
    12134247899,
    12134247900,
    12134247901,
    12134247902,
    12134247903,
    12134247904,
    12134247905,
    12134247906,
    12134247907,
    12134247908,
    1314562139,
    11016537675,
    11016537677,
    1314562135,
    11016537678,
    11016537679,
    11016537680,
    1314562092,
    1314562078,
    1314562059,
    1314562058,
    1314562051,
    1314562043,
    1314562040
  ],
  "tags": {
    "aerodrome": "international",
    "aeroway": "aerodrome",
    "alt_name": "Civil Aerodrome Bagdogra",
    "barrier": "fence",
    "ele": "126",
    "fixme": "The whole airport is marked as military landuse when that is not true. Only the east of the airport is actually military use, and the airport boundaries are much larger to the west than the actual airport.",
    "iata": "IXB",
    "icao": "VEBD",
    "landuse": "military",
    "name": "Bagdogra Airport",
    "name:en": "Bagdogra Airport",
    "name:hi": "बागडोगरा विमानक्षेत्र",
    "source": "wikipedia",
    "wikidata": "Q2900847",
    "wikipedia": "en:Bagdogra Airport"
  }
},
{
  "type": "way",
  "id": 116660412,
  "nodes": [
    1314633581,
    1314633584,
    1314633587,
    1314633592,
    1314633578,
    1314633580,
    1314633569,
    1314633566,
    1314633581
  ],
  "tags": {
    "landuse": "military"
  }
},
{
  "type": "way",
  "id": 120403141,
  "nodes": [
    1350130078,
    1241636135,
    4419964229,
    4419964228,
    4419964227,
    1350130039,
    7983707351,
    7983707353,
    7983707352,
    7983707319,
    1350130066,
    7983707355,
    1350130082,
    7983707356,
    1350130029,
    7983707357,
    7983707314,
    1350130064,
    7983707315,
    7983707316,
    7983707318,
    7983707317,
    7983707313,
    7983707312,
    1350130017,
    1350130037,
    1350130044,
    7983707311,
    1350130031,
    7983707310,
    1350130056,
    7983707344,
    1350130055,
    7983707346,
    7983707345,
    1350130058,
    1350130035,
    1350130019,
    1350130070,
    1350130068,
    1350130080,
    5240837548,
    5240837549,
    5240837550,
    5240837551,
    5240837552,
    5240837553,
    1350130013,
    1350130043,
    1350130072,
    1350130010,
    1350130078
  ],
  "tags": {
    "alt_name": "Fulbari Barracks",
    "landuse": "military",
    "name": "Shri Siddhibox Gadh,",
    "name:ne": "श्री सिद्धिबक्स गण, फुलबारी ब्यारेक",
    "operator": "government",
    "phone": "+977 61-531160"
  }
},
{
  "type": "way",
  "id": 120510471,
  "nodes": [
    1241364388,
    1241364161,
    30267922,
    1241364059,
    3730146527,
    3730146528,
    3730146529,
    3730146530,
    1241364024,
    1241363864,
    1241364347,
    3730146421,
    3623451024,
    3623451025,
    3623451026,
    5691323351,
    268726369,
    5691323352,
    5691323495,
    268726370,
    5691321880,
    3636668398,
    268726371,
    3636668401,
    268726363,
    3636668407,
    268726365,
    268726366,
    1351119506,
    3623451027,
    1241364388
  ],
  "tags": {
    "access": "private",
    "alt_name": "V.N.Y. Park",
    "description": "access to military only",
    "landuse": "military",
    "name": "Siddhi Bax Gadh",
    "operator": "Nepal Army"
  }
},
{
  "type": "way",
  "id": 120748089,
  "nodes": [
    1353127736,
    2448257935,
    2448257937,
    4201894698,
    2448257960,
    2448257939,
    2448257958,
    2448257954,
    2448257956,
    2448257941,
    2448257945,
    2448257943,
    2448257947,
    2448257949,
    2448257951,
    2448257933,
    1353127795,
    1353127824,
    1353127745,
    5257004506,
    1353127736
  ],
  "tags": {
    "landuse": "military",
    "name": "British Gurkha Camp",
    "name:ne": "ब्रिटिश गोर्खा क्याम्प"
  }
},
{
  "type": "way",
  "id": 121534441,
  "nodes": [
    1360318421,
    1360318427,
    1360318416,
    1360318430,
    1360318410,
    1360318422,
    1360318412,
    1360318424,
    1360318428,
    1360318417,
    1360318407,
    1360318419,
    1360318423,
    1360318413,
    1360318425,
    1360318414,
    1360318418,
    1360318408,
    1360318420,
    1360318411,
    1360318421
  ],
  "tags": {
    "area": "yes",
    "landuse": "military",
    "military": "barracks",
    "name": "चाराली आर्मी ब्याराक",
    "name:en": "Charali Army Barracks"
  }
},
{
  "type": "way",
  "id": 123935434,
  "nodes": [
    1380570042,
    9158165323,
    9238170047,
    9238170046,
    9158165324,
    9158165325,
    9158165326,
    9158165327,
    9158165328,
    9158165329,
    9158165330,
    1380568612,
    1380568208,
    9158165331,
    1380567907,
    6728753866,
    1380569970,
    1380569653,
    9158165332,
    1380569315,
    1380568843,
    1380569634,
    1380569301,
    9158165333,
    9158165334,
    9158155154,
    1380568823,
    1380568371,
    1380568050,
    9158155155,
    9158155156,
    1380570145,
    1380569810,
    1380569507,
    9158155157,
    9158155158,
    9158155159,
    9158155160,
    9158155161,
    9158155163,
    9158155165,
    9158155164,
    9158155167,
    9158155168,
    9158155170,
    9158155169,
    6703916342,
    9158155171,
    9158155172,
    9158155173,
    9158155174,
    9158155176,
    9158155178,
    9158155179,
    9158155181,
    9158155180,
    9158155183,
    9158155182,
    9158155177,
    9158155184,
    9158155185,
    9158155175,
    9158155166,
    9158155186,
    9158155187,
    9158155162,
    1380569788,
    9158155188,
    9158155189,
    1380569482,
    9158155190,
    1380569073,
    1380568588,
    9158155191,
    1380568193,
    1380567882,
    9158155192,
    9158155193,
    9158155194,
    9158155195,
    9158155196,
    9158155197,
    9158155198,
    9158155199,
    1380569947,
    9158155200,
    9158155201,
    1380567856,
    9158155202,
    9158155203,
    9158155204,
    1380569284,
    9158155205,
    9158155206,
    9158155207,
    9158155208,
    1380568035,
    9158155209,
    1380568771,
    9158155210,
    9158155211,
    9158155212,
    9158155213,
    1380568331,
    9158155214,
    9158155215,
    9158155216,
    1380568002,
    9158165318,
    9158165317,
    1380570091,
    9158165319,
    9158165320,
    9158165321,
    1380569770,
    1380569459,
    9158165322,
    1380570042
  ],
  "tags": {
    "aeroway": "aerodrome",
    "barrier": "wall",
    "fixme": "Looks a bit residential to be inside an airfield wall to me, no trace of a wall on the recent Maxar Premium either",
    "icao": "VECA",
    "landuse": "military",
    "military": "airfield",
    "name": "Chabua Air Force Station",
    "name:en": "Chabua Air Force Station"
  }
},
{
  "type": "way",
  "id": 134495518,
  "nodes": [
    1478726466,
    1478726440,
    1478726413,
    3678149589,
    3678149590,
    1478726412,
    3678149591,
    3678149592,
    3678149593,
    1478726368,
    3678185494,
    3678149594,
    3678185491,
    3678185492,
    3678185493,
    3677039451,
    3678149632,
    3678185744,
    3677039452,
    3678149686,
    3677039454,
    3677039455,
    3678185743,
    3677039457,
    3678185738,
    3678185739,
    3678185741,
    3678185742,
    3678185740,
    3677039458,
    3677039459,
    3678185728,
    3678185737,
    3678185729,
    3678185730,
    3677039460,
    3678185732,
    3678185731,
    3678185733,
    3678185734,
    3678185735,
    3678185472,
    3678185471,
    1478726307,
    1478726315,
    3678185379,
    3678185380,
    3678185381,
    3678185382,
    1478726321,
    3678185399,
    3678185402,
    1478726331,
    1478726333,
    3678185400,
    3678185401,
    1478726337,
    1478726351,
    1478726363,
    3678185407,
    1478726439,
    3678185667,
    3678185666,
    3678137420,
    3678137423,
    3678137424,
    3678149525,
    3678149526,
    3677039473,
    3678149528,
    3678149527,
    3678149529,
    1478726468,
    3678149530,
    1478726466
  ],
  "tags": {
    "aeroway": "aerodrome",
    "barrier": "fence",
    "icao": "VEHX",
    "landuse": "military",
    "military": "airfield",
    "name": "Hashimara Air Force Station"
  }
},
{
  "type": "way",
  "id": 154378692,
  "nodes": [
    9050495939,
    9050495940,
    9050495941,
    1669202683,
    1669202689,
    1669202691,
    1669202695,
    1669202702,
    1669202732,
    9050495935,
    9050495936,
    9050495937,
    9050495938,
    1669202704,
    1669202699,
    1669202693,
    1669202690,
    1669202687,
    1669202685,
    9050495939
  ],
  "tags": {
    "image": "https://i2.kknews.cc/SIG=1pic9sb/ctp-vzntr/3n23887o2q4p44os9571pnq4np521229.jpg",
    "landuse": "military",
    "man_made": "geoglyph",
    "name": "八一军徽",
    "name:en": "Military Sign",
    "name:zh": "八一军徽",
    "source": "bing",
    "source:url": "https://kknews.cc/zh-cn/travel/8v3bqke.html",
    "tourism": "artwork"
  }
},
{
  "type": "way",
  "id": 157584900,
  "nodes": [
    1698245581,
    1698245590,
    1698245592,
    1698245582,
    1698245581
  ],
  "tags": {
    "landuse": "military"
  }
},
{
  "type": "way",
  "id": 172651355,
  "nodes": [
    1835345438,
    1835345494,
    1835345576,
    1835345580,
    1835345584,
    1835345590,
    1835345677,
    1835345704,
    1835345712,
    1835345708,
    1835345715,
    1835345716,
    1835345717,
    6075247689,
    1835345734,
    1835345732,
    1835345726,
    1906601062,
    1835345714,
    1835345713,
    1835345702,
    1835345700,
    5353741334,
    1835345696,
    1835345688,
    1906601055,
    1835345676,
    1835345668,
    1835345656,
    1906601050,
    1835345611,
    1835345594,
    1835345582,
    1906601045,
    1835345572,
    1906601043,
    1835345558,
    1835345546,
    1835345537,
    1835345529,
    1906601038,
    1835345516,
    1906601035,
    1835345498,
    1835345483,
    1906601022,
    1835345470,
    1835345459,
    1835345453,
    1835345417,
    1835345407,
    1835345403,
    1835345384,
    1835345376,
    1835345366,
    1835345356,
    1835345343,
    1835345340,
    1835345344,
    1835345342,
    1835345336,
    1835345329,
    1835345328,
    1835345331,
    1835345339,
    1835345361,
    1835345364,
    1835345374,
    1835345399,
    1835345402,
    1835345408,
    6079205902,
    1835345414,
    1835345419,
    6079205894,
    6079205901,
    1835345438
  ],
  "tags": {
    "landuse": "military"
  }
},
{
  "type": "way",
  "id": 180167358,
  "nodes": [
    11977581457,
    11977581456,
    11977581455,
    11977581454,
    3355595779,
    11977581453,
    13252169849,
    11977581452,
    11977581451,
    11977581450,
    11977581449,
    11977581448,
    11977581447,
    11977581446,
    11977581445,
    11977581444,
    11977581443,
    11977581442,
    11977581441,
    11977581440,
    11977581439,
    11977581438,
    11977581437,
    11977581436,
    11977581435,
    11977581434,
    11977581433,
    11977581432,
    11977581431,
    11977581430,
    11977581429,
    9270943761,
    11977581428,
    11977581427,
    11977581426,
    11977581425,
    11977581424,
    11977581423,
    11977581422,
    11977581421,
    11977581420,
    11977581419,
    11977581418,
    11977581417,
    11977581467,
    11977581466,
    11977581465,
    11977581464,
    11977581463,
    11977581462,
    11977581461,
    11977581460,
    11977581459,
    11977581458,
    11977581457
  ],
  "tags": {
    "landuse": "military",
    "name": "सशस्त्र प्रहरी बल, आँपटारी",
    "name:en": "Armed Police Force, Aaptari",
    "name:ne": "सशस्त्र प्रहरी बल, आँपटारी"
  }
},
{
  "type": "way",
  "id": 181280873,
  "nodes": [
    1917103205,
    1917103201,
    1917103187,
    1917103217,
    1917103225,
    1917103205
  ],
  "tags": {
    "landuse": "military"
  }
},
{
  "type": "way",
  "id": 181280878,
  "nodes": [
    1917102854,
    1917102885,
    1917102957,
    11941672725,
    1917102917,
    11941672724,
    1917102934,
    1917102974,
    1917102959,
    3482294853,
    3482294854,
    1917102754,
    1776690151,
    11941672729,
    1917102789,
    1917102794,
    1917102837,
    1917102854
  ],
  "tags": {
    "designation": "Military",
    "landuse": "military",
    "name": "Bhairavnath Battalion"
  }
},
{
  "type": "way",
  "id": 181416173,
  "nodes": [
    1918442492,
    1918442237,
    1918441801,
    1918441773,
    1918441778,
    1918441761,
    1918441727,
    1918441682,
    1918441686,
    1918441739,
    1918441765,
    1918441782,
    1918441825,
    1918441894,
    1918442229,
    1918442321,
    1918442224,
    1918442700,
    1918442667,
    1918442622,
    1918442539,
    1918442516,
    1918442492
  ],
  "tags": {
    "landuse": "military",
    "name": "Armed Police Force,Kalinchok Battalion"
  }
},
{
  "type": "way",
  "id": 184390155,
  "nodes": [
    1948690656,
    1948690651,
    2530572237,
    2530572238,
    1948690647,
    1948690649,
    1948690650,
    6065803548,
    6065803547,
    6065803534,
    1948690652,
    1948690646,
    1948690644,
    2530572249,
    2530572252,
    2530572253,
    2530572242,
    1948690656
  ],
  "tags": {
    "landuse": "military"
  }
},
{
  "type": "way",
  "id": 186171700,
  "nodes": [
    1968654861,
    1968654844,
    7457389460,
    7457389461,
    1968654857,
    1968654863,
    3328145181,
    3347849447,
    3347849448,
    1968654860,
    1968654832,
    3328145204,
    1968654865,
    8714970137,
    13361409557,
    13361409558,
    13271949347,
    1968654834,
    3479690719,
    1968654856,
    1968654848,
    3324776668,
    3324776665,
    3324776663,
    1968654862,
    1968654869,
    1968654867,
    1968654853,
    1968654859,
    1968654849,
    1968654854,
    7596705364,
    7596705366,
    7596705365,
    1968654850,
    7596705363,
    7596705362,
    1968654842,
    7596705360,
    3355050965,
    7596705357,
    1968654851,
    7596705356,
    1968654870,
    1968654871,
    1968654846,
    13277648787,
    13277648788,
    1968654861
  ],
  "tags": {
    "landuse": "military",
    "name": "Army Barrack"
  }
},
{
  "type": "way",
  "id": 197419892,
  "nodes": [
    5544768594,
    5660202244,
    5544771831,
    5544771828,
    5544771832,
    5544771829,
    5544771825,
    5660202232,
    5544768619,
    5660202235,
    5544768604,
    5660202236,
    5660202237,
    5544768591,
    5544768618,
    5544768600,
    5544768603,
    5544771823,
    5544768601,
    5544768593,
    5544771822,
    5544768620,
    5544768611,
    5544768599,
    5544768614,
    5544768617,
    5544768615,
    5544768613,
    5544768616,
    5544771830,
    5544771827,
    5544771824,
    5544768597,
    5544768598,
    5544768602,
    5544768592,
    5544768595,
    5544771826,
    5544768596,
    5660632277,
    5544768612,
    5544768609,
    5660632279,
    5544768610,
    5660632280,
    5544768607,
    5544768608,
    5660632281,
    5544768606,
    5544771833,
    3491361532,
    3491361533,
    5660632264,
    1835699500,
    5544768605,
    5544771821,
    5544768594
  ],
  "tags": {
    "landuse": "military",
    "name": "Military Academy"
  }
},
{
  "type": "way",
  "id": 202058487,
  "nodes": [
    2120394729,
    2120394768,
    2120394886,
    2120394911,
    2120394917,
    2120394788,
    2120394880,
    2120394807,
    2120394762,
    2120394748,
    2120394787,
    2120394780,
    2120394688,
    2120394637,
    2120394571,
    2120394729
  ],
  "tags": {
    "landuse": "military",
    "source": "bing"
  }
},
{
  "type": "way",
  "id": 206874130,
  "nodes": [
    2169242178,
    2169242175,
    2169242163,
    2169242145,
    2169308033,
    2089709123,
    2169308031,
    2169308029,
    2169308028,
    10575892038,
    2169308014,
    2169307949,
    2169307963,
    2169307968,
    2169307998,
    2169307999,
    2169308015,
    2169308018,
    2169308019,
    2169308017,
    2169308021,
    2169308016,
    2169242100,
    2169242112,
    2169242114,
    2169242079,
    2169242073,
    2169242089,
    2169242130,
    2169242136,
    2169242139,
    2169242178
  ],
  "tags": {
    "landuse": "military"
  }
},
{
  "type": "way",
  "id": 212443188,
  "nodes": [
    2222970883,
    2222970897,
    2222970901,
    2222970920,
    2222970928,
    2222970867,
    2222970870,
    2222970945,
    2222971005,
    2222971091,
    2222971076,
    2222971676,
    2222971736,
    2222971776,
    2222971792,
    2222972880,
    2222972885,
    2222972953,
    2222972940,
    2222973050,
    2222973048,
    2222973065,
    2222973092,
    2222973083,
    2222973032,
    2222973018,
    2222973007,
    2222973026,
    2222973022,
    2222973005,
    2222972985,
    2222972984,
    2222973016,
    2222973009,
    2222972982,
    2222972981,
    2222972967,
    2222972965,
    2222972955,
    2222972927,
    2222972924,
    2222972916,
    2222972907,
    2222972923,
    2222972918,
    2222972842,
    2222972817,
    2222972813,
    2222971931,
    2222971947,
    2222971967,
    2222971964,
    2222971971,
    2222971454,
    2222971477,
    2222971096,
    2222971055,
    2222971008,
    2222971017,
    2222971000,
    2222970999,
    2222970931,
    2222970927,
    2222970923,
    2222970917,
    2222970903,
    2222970884,
    2222970886,
    2222970899,
    2222970911,
    2222970883
  ],
  "tags": {
    "aeroway": "aerodrome",
    "alt_name": "Bakshi Ka Talab Air Force Station",
    "icao": "VIBL",
    "is_in:country": "India",
    "landuse": "military",
    "military": "airfield",
    "military_service": "air_force",
    "name": "Lucknow Air Force Station",
    "operator": "Central Air Command",
    "operator:wikipedia": "Central Air Command (India)",
    "wikidata": "Q6697767",
    "wikipedia": "en:Lucknow Air Force Station"
  }
},
{
  "type": "way",
  "id": 215100968,
  "nodes": [
    2245176187,
    2245176183,
    2245176175,
    2245176177,
    2245176203,
    2245176147,
    2245176169,
    2245176163,
    2245176171,
    2245176179,
    2245176185,
    2245176192,
    2245176194,
    2245176173,
    2245176155,
    2245176151,
    2245176160,
    12598601518,
    2245176189,
    12598601519,
    12598601520,
    2245176181,
    2245176166,
    2245176196,
    5310855358,
    2245176191,
    2245176199,
    5310844680,
    2245176187
  ],
  "tags": {
    "landuse": "military",
    "name": "Army Barrack"
  }
},
{
  "type": "way",
  "id": 217548808,
  "nodes": [
    2268301762,
    2268301760,
    2268301754,
    2268301752,
    2268301750,
    2268301746,
    5547369699,
    2268301747,
    5547369698,
    2268301748,
    2268301749,
    2268301751,
    2268301753,
    2268301759,
    2268301761,
    5660632275,
    5660632276,
    2268301762
  ],
  "tags": {
    "landuse": "military",
    "name": "Military Academy"
  }
},
{
  "type": "way",
  "id": 218179006,
  "nodes": [
    2274517404,
    2274517353,
    2274517362,
    2274517409,
    2274517390,
    2274517421,
    2274517407,
    4951368424,
    2274517394,
    2274517363,
    2274517408,
    2274517402,
    2274517341,
    2274517371,
    2274517416,
    2274517336,
    2274517395,
    2274517398,
    2274517413,
    2274517422,
    2274517370,
    2274517380,
    2274517404
  ],
  "tags": {
    "landuse": "military",
    "name": "Ghum Barracks (partial)"
  }
},
{
  "type": "way",
  "id": 219358596,
  "nodes": [
    12715823451,
    6089421845,
    12715823452,
    12715823453,
    1525726640,
    1525726646,
    8535674696,
    2257263983,
    12715823458,
    12715823454,
    12715823455,
    2285170927,
    2285170928,
    2285170929,
    2285170931,
    2285170933,
    2285170936,
    6078412603,
    2285170937,
    2285170940,
    2285170939,
    2285170942,
    6078412604,
    6078412605,
    2285170946,
    2285170945,
    2285170943,
    2285170941,
    8526897957,
    2285170938,
    2285170935,
    6081588474,
    2285170932,
    12715823459,
    12715823451
  ],
  "tags": {
    "landuse": "military"
  }
},
{
  "type": "way",
  "id": 220215459,
  "nodes": [
    2293467748,
    2293467736,
    2293467734,
    2293467729,
    2293467731,
    2293467730,
    2293467732,
    2293467733,
    2293467738,
    2293467739,
    2293467749,
    2293467752,
    2293467751,
    2293467750,
    2293467746,
    2293467744,
    2293467742,
    2293467741,
    2293467740,
    2293467743,
    2293467745,
    2293467747,
    2293467748
  ],
  "tags": {
    "military": "barracks",
    "name": "Nepal Army Tribeni"
  }
},
{
  "type": "way",
  "id": 227892269,
  "nodes": [
    2365233341,
    2365233340,
    6092450995,
    6092450994,
    2365233338,
    3071504206,
    2365233339,
    6094516074,
    2365233336,
    3071504303,
    2365233327,
    3071504251,
    2365233325,
    2163583686,
    6094640353,
    2365233319,
    11251221484,
    2365233320,
    3071504142,
    3071504302,
    2365233317,
    2365233318,
    3071504217,
    2365233321,
    2169108883,
    3071504161,
    2365233322,
    2365233323,
    3071504187,
    2365233324,
    2365233330,
    3071504261,
    2365233328,
    2365233332,
    2365233335,
    6092450960,
    2365233333,
    2365233329,
    2365233334,
    3071504329,
    2365233337,
    7817023974,
    2365233341
  ],
  "tags": {
    "landuse": "military",
    "name": "Nepalese Army Rehabilitation Centre"
  }
},
{
  "type": "way",
  "id": 228705536,
  "nodes": [
    2373706984,
    2373706983,
    2373706985,
    2373706978,
    2373706984
  ],
  "tags": {
    "building": "yes",
    "military": "yes"
  }
},
{
  "type": "way",
  "id": 228705537,
  "nodes": [
    2373706992,
    2373706993,
    2373706995,
    2373706981,
    2373706992
  ],
  "tags": {
    "building": "yes",
    "military": "yes"
  }
},
{
  "type": "way",
  "id": 228705538,
  "nodes": [
    2373706974,
    2373706967,
    2373706964,
    2373706980,
    2373706974
  ],
  "tags": {
    "building": "yes",
    "military": "yes"
  }
},
{
  "type": "way",
  "id": 228705539,
  "nodes": [
    2373706990,
    2373706991,
    2373706989,
    2373706996,
    2373706990
  ],
  "tags": {
    "building": "yes",
    "military": "yes"
  }
},
{
  "type": "way",
  "id": 228705540,
  "nodes": [
    2373706971,
    2373706986,
    2373706976,
    2373706969,
    2373706971
  ],
  "tags": {
    "building": "yes",
    "military": "yes",
    "name": "Hawa Mahal"
  }
},
{
  "type": "way",
  "id": 228705541,
  "nodes": [
    2373706959,
    2373706987,
    2373706972,
    2373706988,
    2373706959
  ],
  "tags": {
    "building": "yes",
    "military": "yes"
  }
},
{
  "type": "way",
  "id": 228705913,
  "nodes": [
    2373709685,
    2373709692,
    2373709694,
    2373709684,
    2373709679,
    2373709686,
    2373709688,
    2373709691,
    2373709685
  ],
  "tags": {
    "building": "yes",
    "military": "yes"
  }
},
{
  "type": "way",
  "id": 228705915,
  "nodes": [
    2373709693,
    2373709680,
    2373709683,
    2373709682,
    2373709693
  ],
  "tags": {
    "building": "yes",
    "military": "yes"
  }
},
{
  "type": "way",
  "id": 228705916,
  "nodes": [
    2373709687,
    2373709681,
    2373709689,
    2373709690,
    2373709687
  ],
  "tags": {
    "building": "yes",
    "military": "yes"
  }
},
{
  "type": "way",
  "id": 229458261,
  "nodes": [
    2380539428,
    2380539432,
    9790052182,
    9790052183,
    2380539438,
    9790052184,
    9790052185,
    2380539436,
    2380539428
  ],
  "tags": {
    "landuse": "military"
  }
},
{
  "type": "way",
  "id": 229592083,
  "nodes": [
    2381626172,
    2381626169,
    2381626170,
    2381626175,
    9025688728,
    2381626176,
    2381626174,
    2381626173,
    2381626172
  ],
  "tags": {
    "landuse": "military"
  }
},
{
  "type": "way",
  "id": 232952330,
  "nodes": [
    2412746464,
    2412746463,
    2412746461,
    2412746457,
    2412746454,
    2412746466,
    2412746474,
    2412746469,
    2412746473,
    2412746471,
    2412746465,
    2412746462,
    2412746464
  ],
  "tags": {
    "building": "yes",
    "military": "office"
  }
},
{
  "type": "way",
  "id": 241803818,
  "nodes": [
    2493917420,
    2493917419,
    2493917418,
    2493917417,
    2493917416,
    2493917414,
    2493917413,
    9376319203,
    9376319202,
    9376319201,
    3489167938,
    2493917411,
    9441830520,
    9441830521,
    9441830522,
    2493917412,
    9464767672,
    2493917415,
    2493917420
  ],
  "tags": {
    "landuse": "military",
    "name": "Indra Box Batallion"
  }
},
{
  "type": "way",
  "id": 243731143,
  "nodes": [
    2511049702,
    2511049434,
    2511049289,
    2511049537,
    2511049142,
    2511049612,
    13254083648,
    13254083647,
    13254083646,
    2511049702
  ],
  "tags": {
    "landuse": "military"
  }
},
{
  "type": "way",
  "id": 243754224,
  "nodes": [
    2511257202,
    2511257009,
    2511256972,
    2511257074,
    2511256983,
    2511256949,
    2511257148,
    2511257063,
    2511257182,
    2511257105,
    2511257198,
    2511256984,
    2511257165,
    9281716186,
    2511257202
  ],
  "tags": {
    "landuse": "military"
  }
},
{
  "type": "way",
  "id": 243754225,
  "nodes": [
    2511257102,
    2511256969,
    2511257021,
    2511257092,
    2511257098,
    5008018544,
    2511256977,
    2511257061,
    2511256927,
    5008018535,
    2511257177,
    2511256997,
    2511257065,
    2511257102
  ],
  "tags": {
    "landuse": "military"
  }
},
{
  "type": "way",
  "id": 243870622,
  "nodes": [
    2512301603,
    2512301897,
    2512301826,
    2512301876,
    2512301574,
    2512301744,
    2512301656,
    2512301537,
    2512301653,
    2512301571,
    2512301542,
    2512301830,
    2512301707,
    2512301687,
    2512301796,
    2512301809,
    2512301578,
    2512301884,
    2512301608,
    2512301862,
    2512301695,
    2512301603
  ],
  "tags": {
    "landuse": "military"
  }
},
{
  "type": "way",
  "id": 243875479,
  "nodes": [
    2512381533,
    2512381511,
    2512381524,
    2512381526,
    2512381534,
    13254083642,
    13254083643,
    13254083644,
    13254083645,
    2512381533
  ],
  "tags": {
    "landuse": "military"
  }
},
{
  "type": "way",
  "id": 243875481,
  "nodes": [
    2512381504,
    2512381517,
    9273359141,
    2512381510,
    2512381512,
    2512381508,
    2512381532,
    2512381504
  ],
  "tags": {
    "landuse": "military"
  }
},
{
  "type": "way",
  "id": 243875582,
  "nodes": [
    11252990787,
    2512382334,
    2512382328,
    9216828567,
    2512382319,
    2512382354,
    13254060947,
    13254060948,
    11252990787
  ],
  "tags": {
    "landuse": "military"
  }
},
{
  "type": "way",
  "id": 244272192,
  "nodes": [
    2516093755,
    2516093753,
    2516093752,
    2516093749,
    2516093748,
    2516093745,
    2516093744,
    2516093747,
    2516093751,
    2516093754,
    2516093756,
    2516093755
  ],
  "tags": {
    "landuse": "military",
    "name": "波林边防连"
  }
},
{
  "type": "way",
  "id": 244326299,
  "nodes": [
    2516564378,
    2516564372,
    2516564367,
    2516564370,
    2516564375,
    2516564377,
    2516564378
  ],
  "tags": {
    "landuse": "military"
  }
},
{
  "type": "way",
  "id": 245873057,
  "nodes": [
    2529755385,
    2529755384,
    12500044641,
    12500044640,
    2529755377,
    12500044639,
    2529755376,
    2529755381,
    2529755382,
    2529755378,
    12500044638,
    12500044637,
    2529755373,
    12500044636,
    12500044635,
    2529755371,
    12500044634,
    2529755372,
    2529755374,
    12500044633,
    2529755380,
    2529755387,
    2529755389,
    12500044632,
    2529755388,
    2529755386,
    2529755379
  ],
  "tags": {
    "military": "trench"
  }
},
{
  "type": "way",
  "id": 249352884,
  "nodes": [
    2559679214,
    2559679217,
    2559679216,
    2559679212,
    2559679214
  ],
  "tags": {
    "building": "yes",
    "landuse": "military",
    "military": "barracks"
  }
},
{
  "type": "way",
  "id": 253458423,
  "nodes": [
    2593829650,
    2593829653,
    2593829651,
    2593829647,
    2593829650
  ],
  "tags": {
    "barrier": "wall",
    "landuse": "military"
  }
},
{
  "type": "way",
  "id": 257763927,
  "nodes": [
    2632353712,
    3636668410,
    2632353713,
    2632353714,
    3636668405,
    5033647383,
    2632353715,
    1349105925,
    3636668408,
    3636668409,
    2632353712
  ],
  "tags": {
    "access": "no",
    "addr:city": "pokhara lekhnath municipality",
    "addr:district": "kaski",
    "addr:street": "Barahi Margha",
    "landuse": "military",
    "name": "Army Camp Playground",
    "operator": "Nepal Army"
  }
},
{
  "type": "way",
  "id": 261252691,
  "nodes": [
    2668839132,
    2668839153,
    2668839169,
    2668839170,
    2668839166,
    2668839164,
    2668839161,
    2668839163,
    2668839131,
    2668839125,
    2668839123,
    2668839129,
    12170451503,
    12170451504,
    12170451506,
    12170451507,
    12170451508,
    12170451505,
    12170451502,
    12170451501,
    12170451500,
    12170451509,
    2668839127,
    2668839116,
    2668839120,
    2668839122,
    2668839117,
    2668839112,
    2668839110,
    2668839114,
    2668839132
  ],
  "tags": {
    "barrier": "wall",
    "landuse": "military",
    "name": "武警拉萨支队"
  }
},
{
  "type": "way",
  "id": 262685417,
  "nodes": [
    2683529192,
    2689677400,
    2689677343,
    2683529194,
    2683529190,
    2689677335,
    2689677311,
    2683529193,
    2689677377,
    2689677341,
    2683529191,
    2689677396,
    2683529195,
    2689677381,
    2683529192
  ],
  "tags": {
    "landuse": "military",
    "name": "Army Camp"
  }
},
{
  "type": "way",
  "id": 262691738,
  "nodes": [
    2683616277,
    2683616275,
    2683616290,
    2683616281,
    2683616283,
    2683616286,
    2683616284,
    2683616288,
    2683616279,
    2683616277
  ],
  "tags": {
    "landuse": "military",
    "name": "Army Camp"
  }
},
{
  "type": "way",
  "id": 263935650,
  "nodes": [
    2696185649,
    2696185643,
    2696185635,
    2696185679,
    2696185651,
    2696185630,
    2696185652,
    2696185629,
    2696185641,
    2696185664,
    2696185626,
    2696185661,
    2696185640,
    2696185648,
    2696185659,
    2696185625,
    2696185655,
    2696185637,
    2696185665,
    2696185638,
    2696185672,
    2696185671,
    2696185649
  ],
  "tags": {
    "landuse": "military"
  }
},
{
  "type": "way",
  "id": 264080393,
  "nodes": [
    2697551288,
    2697551344,
    2697551309,
    2697551311,
    2697551316,
    2697551271,
    2697551345,
    2697551291,
    2697551308,
    2697551298,
    2697551326,
    2697551310,
    2697551315,
    2697551359,
    2697551290,
    2697551313,
    2697551288
  ],
  "tags": {
    "landuse": "military"
  }
},
{
  "type": "way",
  "id": 266354973,
  "nodes": [
    2719243736,
    2719243743,
    2719243745,
    2719243752,
    2719243759,
    2719243761,
    2719243754,
    2719243731,
    2719243729,
    2719243727,
    2719243718,
    2719243736
  ],
  "tags": {
    "barrier": "fence",
    "landuse": "military"
  }
},