{
  "version": 0.6,
  "generator": "Overpass API 0.7.62.10 2d4cfc48",
  "osm3s": {
    "timestamp_osm_base": "2026-01-31T22:31:32Z",
    "copyright": "The data included in this document is from www.openstreetmap.org. The data is made available under ODbL."
  },
  "elements": [

{
  "type": "node",
  "id": 247452029,
  "lat": 27.5756481,
  "lon": 90.7338341,
  "tags": {
    "amenity": "place_of_worship",
    "name": "Toktu Zamba",
    "religion": "buddhist",
    "wheelchair": "no"
  }
},
{
  "type": "node",
  "id": 247453272,
  "lat": 27.5394411,
  "lon": 90.8118328,
  "tags": {
    "amenity": "place_of_worship",
    "name": "Membartso (Burning Lake)",
    "religion": "buddhist"
  }
},
{
  "type": "node",
  "id": 264506059,
  "lat": 28.3603573,
  "lon": 98.4659342,
  "tags": {
    "amenity": "place_of_worship",
    "name": "阿丙寺",
    "religion": "buddhist"
  }
},
{
  "type": "node",
  "id": 264562876,
  "lat": 28.0221212,
  "lon": 98.6098798,
  "tags": {
    "amenity": "place_of_worship",
    "name": "普华寺",
    "name:en": "Puhua Temple",
    "religion": "buddhist"
  }
},
{
  "type": "node",
  "id": 264688485,
  "lat": 28.8281391,
  "lon": 98.4650600,
  "tags": {
    "amenity": "place_of_worship",
    "name:en": "Bitu Temple",
    "name:zh": "碧土寺",
    "religion": "buddhist"
  }
},
{
  "type": "node",
  "id": 264712004,
  "lat": 29.2063898,
  "lon": 98.1034270,
  "tags": {
    "amenity": "place_of_worship",
    "name": "扎玉寺",
    "name:en": "Zhayu Temple",
    "name:zh": "扎玉寺",
    "religion": "buddhist"
  }
},
{
  "type": "node",
  "id": 267763690,
  "lat": 28.1570046,
  "lon": 85.2614007,
  "tags": {
    "amenity": "place_of_worship",
    "religion": "buddhist"
  }
},
{
  "type": "node",
  "id": 279376643,
  "lat": 27.7158423,
  "lon": 85.2892175,
  "tags": {
    "amenity": "place_of_worship",
    "religion": "buddhist"
  }
},
{
  "type": "node",
  "id": 287250980,
  "lat": 32.0894296,
  "lon": 78.2125780,
  "tags": {
    "amenity": "place_of_worship",
    "name": "(Old) Dankhar Gompa",
    "religion": "buddhist",
    "wikidata": "Q5268988",
    "wikipedia": "en:Dhankar Gompa"
  }
},
{
  "type": "node",
  "id": 287411686,
  "lat": 32.2972800,
  "lon": 78.0118490,
  "tags": {
    "amenity": "place_of_worship",
    "name": "Ki Gompa",
    "name:fr": "Monastère de Key",
    "name:hi": "की गोम्पा",
    "religion": "buddhist",
    "wheelchair": "no",
    "wikidata": "Q1341262",
    "wikipedia": "en:Key Monastery"
  }
},
{
  "type": "node",
  "id": 297420323,
  "lat": 28.8376475,
  "lon": 83.7835743,
  "tags": {
    "amenity": "place_of_worship",
    "name": "Kagbeni Gompa",
    "name:ne": "कागबेणि गुम्बा",
    "religion": "buddhist"
  }
},
{
  "type": "node",
  "id": 298097214,
  "lat": 30.7767408,
  "lon": 90.8664697,
  "tags": {
    "amenity": "place_of_worship",
    "denomination": "tibetan",
    "ele": "4763",
    "int_name": "Tashi Dor Gompa",
    "name": "扎西多寺",
    "name:en": "Tashi Dor Monastery",
    "religion": "buddhist",
    "wikidata": "Q122616",
    "wikipedia": "en:Tashi Dor"
  }
},
{
  "type": "node",
  "id": 298097279,
  "lat": 29.1936837,
  "lon": 91.7721610,
  "tags": {
    "alt_name": "Tradruk;Thradrug;Tradruk Monastery;Tradruk Temple;Tradruk Gönpa",
    "alt_name:bo": "ཁྲ་འབྲུག་གཙུག་ལག་ཁང;གཡོ་རུ་ཁྲ་འབྲུག་བཀྲ་ཤིས་བྱམས་སྙོམས་ལྷ་ཁང;ཆོས་འཁོར་ཁྲ་འབྲུག;གཡོ་རུ་ཁྲ་འབྲུག་;ཁྲ་འབྲུག་དགོན་པ།",
    "amenity": "place_of_worship",
    "denomination": "tibetan",
    "heritage": "2",
    "name": "གཡོ་རུ་ཁྲ་འབྲུག་ 昌珠寺",
    "name:ar": "معبد ترادكور",
    "name:bn": "খ্রা-ব্রুগ বৌদ্ধবিহার",
    "name:bo": "གཡོན་རུ་ཁྲ་འབྲུག་གཙུག་ལག་ཁང",
    "name:de": "Thradrug-Kloster",
    "name:en": "Tradruk Temple",
    "name:fr": "temple Changzhug",
    "name:hu": "Tradruk templom",
    "name:zh": "昌珠寺",
    "ref:heritage:CN": "1-0082-3-035",
    "religion": "buddhist",
    "school": "gelug",
    "wikidata": "Q601022",
    "wikipedia": "en:Tradruk Temple"
  }
},
{
  "type": "node",
  "id": 298132470,
  "lat": 29.7586567,
  "lon": 91.4762780,
  "tags": {
    "alt_name": "Ganden;Gandain;噶丹寺;Gadan Si;Gandan Si",
    "alt_name:bo": "དགའ་ལྡན་",
    "amenity": "place_of_worship",
    "denomination": "tibetan",
    "int_name": "Ganden Namgyeling",
    "name": "དགའ་ལྡན་དགོན། 甘丹寺",
    "name:bn": "দ্গা'-ল্দান বৌদ্ধবিহার",
    "name:bo": "དགའ་ལྡན་དགོན།",
    "name:cs": "Gandän",
    "name:en": "Ganden Monastery",
    "name:fi": "Gandenin luostari",
    "name:fr": "Ganden",
    "name:hu": "Ganden kolostor",
    "name:hy": "Գանդեն",
    "name:ja": "ガンデン寺",
    "name:ko": "간덴 사원",
    "name:my": "ဂန်ဒန်းကျောင်းတော်",
    "name:ru": "Ганден",
    "name:sl": "Samostan Ganden",
    "name:sv": "Gandenklostret",
    "name:uk": "Ганден",
    "name:zh": "甘丹寺",
    "religion": "buddhist",
    "wikidata": "Q932446",
    "wikipedia": "bo:དགའ་ལྡན་དགོན།"
  }
},
{
  "type": "node",
  "id": 298154461,
  "lat": 29.4471053,
  "lon": 92.7121277,
  "tags": {
    "alt_name": "Chokorgyel;Chokhor Gyel;Chokhor Gyel Monastery;Chökorgye Monastery;Chokhorgyel gomba",
    "alt_name:zh": "曲科杰寺;青稞吉寺;曲果杰寺",
    "amenity": "place_of_worship",
    "denomination": "tibetan",
    "historic": "ruins",
    "name": "琼果杰寺",
    "name:bo": "ཆོས་འཁོར་གླིང་དགོན།",
    "name:de": "Chökhorgyel",
    "name:en": "Chokorgyel Monastery",
    "name:fr": "Chokhorgyal",
    "name:nl": "Chokorgyel",
    "name:zh": "琼果杰寺",
    "religion": "buddhist",
    "school": "gelug",
    "wikidata": "Q1091025"
  }
},
{
  "type": "node",
  "id": 298329410,
  "lat": 32.1217069,
  "lon": 98.8588765,
  "tags": {
    "alt_name": "竹庆寺",
    "alt_name:bo": "རྫོགས་ཆེན་དགོན།;རྫོགས་ཆེན་དགོན།;སྡེ་དགེ་རྫོགས་ཆེན་དགོན;ཨོ་རྒྱན་བསམ་གཏན་ཆོས་གླིང;རྫོགས་ཆེན་རུ་དམ་ཨོ་རྒྱན་བསམ་གཏན་ཆོས་གླིང",
    "amenity": "place_of_worship",
    "denomination": "tibetan",
    "name": "རྫོགས་ཆེན་དགོན 佐钦寺",
    "name:bo": "རྫོང་ཆེན་དགོན།",
    "name:de": "Dzogchen-Kloster",
    "name:en": "Dzogchen Monastery",
    "name:fr": "Monastère de Dzogchen",
    "name:hu": "Dzogcsen kolostor",
    "name:it": "Monastero Dzogchen",
    "name:no": "Dzogchenklosteret",
    "name:ru": "Монастырь Дзогчен",
    "name:zh": "佐钦寺",
    "name:zh-Latn-pinyin": "Zhúqìng Sì",
    "religion": "buddhist",
    "website": "http://www.dzogchenmonastery.cn/",
    "wikidata": "Q1269528",
    "wikipedia": "en:Dzogchen Monastery"
  }
},
{
  "type": "node",
  "id": 332539165,
  "lat": 29.6995345,
  "lon": 92.2312620,
  "tags": {
    "alt_name": "日多贡巴",
    "amenity": "place_of_worship",
    "denomination": "tibetan",
    "name": "རུ་ཐོག་དགོན་ (日多寺)",
    "name:bo": "རུ་ཐོག་དགོན་",
    "name:en": "Rutog Monastery",
    "name:zh": "日多寺",
    "religion": "buddhist"
  }
},
{
  "type": "node",
  "id": 336313317,
  "lat": 29.4491758,
  "lon": 91.0266431,
  "tags": {
    "amenity": "place_of_worship",
    "name": "修赛寺",
    "name:de": "Shugseb-Kloster",
    "name:en": "Shugseb Monastery",
    "name:zh": "修赛寺",
    "name:zh-Latn-pinyin": "xiūsài sì",
    "religion": "buddhist",
    "wikidata": "Q1565880",
    "wikipedia": "zh:修赛寺"
  }
},
{
  "type": "node",
  "id": 336409001,
  "lat": 29.1941896,
  "lon": 88.7620276,
  "tags": {
    "alt_name": "纳唐寺;Narthang",
    "amenity": "place_of_worship",
    "name": "སྣར་ཐང་དགོན། (纳塘寺)",
    "name:bo": "སྣར་ཐང་དགོན།",
    "name:de": "Narthang-Kloster",
    "name:en": "Narthang Monastery",
    "name:zh": "纳塘寺",
    "religion": "buddhist",
    "wikidata": "Q1483753",
    "wikipedia": "zh:纳塘寺"
  }
},
{
  "type": "node",
  "id": 336409014,
  "lat": 29.1553802,
  "lon": 88.5819959,
  "tags": {
    "amenity": "place_of_worship",
    "name": "Ganchen",
    "religion": "buddhist"
  }
},
{
  "type": "node",
  "id": 336901813,
  "lat": 27.6321799,
  "lon": 85.2659893,
  "tags": {
    "amenity": "place_of_worship",
    "denomination": "tibetan",
    "name": "दुदजोम नाड्रोम चोलिङ",
    "name:en": "Dudjom Nadrom Choling",
    "name:ne": "दुदजोम नाड्रोम चोलिङ",
    "note": "Retreat Centre",
    "religion": "buddhist"
  }
},
{
  "type": "node",
  "id": 336922579,
  "lat": 27.6242659,
  "lon": 85.2634751,
  "tags": {
    "amenity": "place_of_worship",
    "denomination": "tibetan",
    "name": "Stupa",
    "religion": "buddhist"
  }
},
{
  "type": "node",
  "id": 336939530,
  "lat": 27.6164131,
  "lon": 85.2640437,
  "tags": {
    "amenity": "place_of_worship",
    "name": "Yanglesho Cave",
    "religion": "buddhist"
  }
},
{
  "type": "node",
  "id": 345009556,
  "lat": 29.6767779,
  "lon": 91.0469304,
  "tags": {
    "alt_name": "Drepung;འབྲས་སྤུངས་",
    "amenity": "place_of_worship",
    "denomination": "tibetan",
    "historic": "yes",
    "name": "འབྲས་སྤུངས་དགོན། 哲蚌寺",
    "name:bo": "འབྲས་སྤུངས་དགོན།",
    "name:en": "Drepung Monastery",
    "name:ja": "デプン寺",
    "name:zh": "哲蚌寺",
    "religion": "buddhist",
    "wikidata": "Q241937",
    "wikipedia": "en:Drepung Monastery"
  }
},
{
  "type": "node",
  "id": 485617330,
  "lat": 34.0252064,
  "lon": 78.1748707,
  "tags": {
    "amenity": "place_of_worship",
    "religion": "buddhist"
  }
},
{
  "type": "node",
  "id": 553334401,
  "lat": 27.5713588,
  "lon": 85.5824587,
  "tags": {
    "amenity": "place_of_worship",
    "name": "काग्यु-मठ",
    "name:de": "Kagyü-Kloster",
    "name:en": "Kagyu-Monastery",
    "name:ne": "काग्यु-मठ",
    "religion": "buddhist"
  }
},
{
  "type": "node",
  "id": 553334416,
  "lat": 27.5708965,
  "lon": 85.5812577,
  "tags": {
    "amenity": "place_of_worship",
    "religion": "buddhist"
  }
},
{
  "type": "node",
  "id": 553340076,
  "lat": 27.5732357,
  "lon": 85.5825667,
  "tags": {
    "amenity": "place_of_worship",
    "name": "नमो बुद्ध स्तूपा",
    "name:en": "Namo Buddha Stupa",
    "name:ne": "नमो बुद्ध स्तूपा",
    "religion": "buddhist",
    "source": "Garmin Orgeon 450 GPS"
  }
},
{
  "type": "node",
  "id": 564124455,
  "lat": 27.6125567,
  "lon": 85.2611103,
  "tags": {
    "amenity": "place_of_worship",
    "name": "Stupa",
    "religion": "buddhist"
  }
},
{
  "type": "node",
  "id": 564129617,
  "lat": 27.6689984,
  "lon": 85.3271415,
  "tags": {
    "amenity": "place_of_worship",
    "designation": "Heritage site",
    "name": "महाबुद्ध मन्दिर",
    "name:en": "Mahabuddha Temple",
    "name:ne": "महाबुद्ध मन्दिर",
    "religion": "buddhist",
    "source": "Archilogical Dept."
  }
},
{
  "type": "node",
  "id": 564137121,
  "lat": 27.6999229,
  "lon": 85.3046155,
  "tags": {
    "amenity": "place_of_worship",
    "check_date": "2025-06-05",
    "name": "तुकाम्बाल बुद्ध स्तूपा",
    "name:en": "Tukambahal Buddha Stupa",
    "name:ko": "쿠마리 사원(쿠마리 하우스)",
    "name:ne": "तुकाम्बाल बुद्ध स्तूपा",
    "religion": "buddhist"
  }
},
{
  "type": "node",
  "id": 632389943,
  "lat": 28.2144358,
  "lon": 85.5659008,
  "tags": {
    "amenity": "place_of_worship",
    "ele": "3890",
    "historic": "monument",
    "name:en": "Stupa",
    "religion": "buddhist"
  }
},
{
  "type": "node",
  "id": 670261456,
  "lat": 29.7196810,
  "lon": 91.1179055,
  "tags": {
    "alt_name": "Pabongkha Hermitage",
    "amenity": "place_of_worship",
    "name": "帕邦喀寺",
    "name:en": "Pabonka Hermitage",
    "religion": "buddhist",
    "wikidata": "Q7121816"
  }
},
{
  "type": "node",
  "id": 670261457,
  "lat": 30.3106113,
  "lon": 91.5134729,
  "tags": {
    "amenity": "place_of_worship",
    "denomination": "tibetan",
    "int_name": "Reting",
    "name": "རྭ་སྒྲེང་དགོན། (热振寺)",
    "name:bo": "རྭ་སྒྲེང་དགོན།",
    "name:de": "Radreng-Kloster",
    "name:en": "Reting Monastery",
    "name:zh": "热振寺",
    "religion": "buddhist",
    "wikidata": "Q669671",
    "wikipedia": "zh:热振寺",
    "wikipedia:en": "Reting_Monastery"
  }
},
{
  "type": "node",
  "id": 694167760,
  "lat": 27.6012868,
  "lon": 85.2459964,
  "tags": {
    "amenity": "place_of_worship",
    "denomination": "tibetan",
    "name": "Stupa with remains of Chagdud Tulku Rinpoche",
    "religion": "buddhist"
  }
},
{
  "type": "node",
  "id": 703971516,
  "lat": 27.8302991,
  "lon": 86.6436528,
  "tags": {
    "amenity": "place_of_worship",
    "name": "Thame Monastery",
    "religion": "buddhist"
  }
},
{
  "type": "node",
  "id": 703971719,
  "lat": 27.8395920,
  "lon": 86.6450444,
  "tags": {
    "amenity": "place_of_worship",
    "man_made": "stupa",
    "name": "Stupa",
    "note": "Stupa, Chorten",
    "religion": "buddhist"
  }
},
{
  "type": "node",
  "id": 703972328,
  "lat": 27.8125846,
  "lon": 86.6915411,
  "tags": {
    "amenity": "place_of_worship",
    "description": "Stupa, Chorten",
    "name": "Furte Stupa",
    "religion": "buddhist"
  }
},
{
  "type": "node",
  "id": 766484076,
  "lat": 29.1439103,
  "lon": 91.8043775,
  "tags": {
    "amenity": "place_of_worship",
    "religion": "buddhist"
  }
},
{
  "type": "node",
  "id": 766913267,
  "lat": 29.4604650,
  "lon": 94.3931240,
  "tags": {
    "alt_name:zh": "喇嘛林寺;喇嘛宁寺",
    "amenity": "place_of_worship",
    "int_name": "Lamaling Gompa",
    "name": "བླ་མ་གླིང་དགོན་པ་ (喇嘛岭寺)",
    "name:bo": "བླ་མ་གླིང་དགོན་པ་",
    "name:en": "Lamaling Monastery",
    "name:zh": "喇嘛岭寺",
    "religion": "buddhist",
    "wikidata": "Q633025",
    "wikipedia": "en:Lamaling Monastery"
  }
},
{
  "type": "node",
  "id": 768250495,
  "lat": 31.6552689,
  "lon": 98.3739277,
  "tags": {
    "alt_name:en": "Wara Monastery",
    "amenity": "place_of_worship",
    "name": "瓦拉寺",
    "name:en": "Wara Gomba",
    "name:zh": "瓦拉寺",
    "religion": "buddhist",
    "wikidata": "Q2548947"
  }
},
{
  "type": "node",
  "id": 947910112,
  "lat": 27.7104283,
  "lon": 85.3108880,
  "tags": {
    "amenity": "place_of_worship",
    "name": "Tahiti Stupa",
    "religion": "buddhist"
  }
},
{
  "type": "node",
  "id": 947955738,
  "lat": 27.7051330,
  "lon": 85.3076940,
  "tags": {
    "amenity": "place_of_worship",
    "name": "भोडी वृक्ष",
    "name:en": "Bhodi Tree",
    "name:ne": "भोडी वृक्ष",
    "religion": "buddhist"
  }
},
{
  "type": "node",
  "id": 949307727,
  "lat": 27.7077724,
  "lon": 85.3072942,
  "tags": {
    "addr:city": "Kathmandu",
    "amenity": "place_of_worship",
    "name": "नारदेवी अजिमा मन्दिर",
    "name:en": "Nardevi Ajima Temple",
    "name:ne": "नारदेवी अजिमा मन्दिर",
    "name:new": "न्यत मरु अजिमा",
    "phone": "+9779803340428",
    "religion": "buddhist"
  }
},
{
  "type": "node",
  "id": 973481924,
  "lat": 29.2066773,
  "lon": 83.9395336,
  "tags": {
    "amenity": "place_of_worship",
    "religion": "buddhist"
  }
},
{
  "type": "node",
  "id": 973481981,
  "lat": 29.1904021,
  "lon": 83.9471549,
  "tags": {
    "amenity": "place_of_worship",
    "name": "Namgyal Gompa",
    "religion": "buddhist"
  }
},
{
  "type": "node",
  "id": 973483429,
  "lat": 29.0911029,
  "lon": 83.9335103,
  "tags": {
    "amenity": "place_of_worship",
    "name": "Charang Gompa",
    "religion": "buddhist"
  }
},
{
  "type": "node",
  "id": 973498463,
  "lat": 29.1243677,
  "lon": 83.8885349,
  "tags": {
    "amenity": "place_of_worship",
    "name": "Ghar Gompa",
    "place": "hamlet",
    "religion": "buddhist"
  }
},
{
  "type": "node",
  "id": 973498517,
  "lat": 29.0911877,
  "lon": 83.8773596,
  "tags": {
    "amenity": "place_of_worship",
    "name": "Dhakmar Gompa",
    "religion": "buddhist"
  }
},
{
  "type": "node",
  "id": 974614045,
  "lat": 28.9091981,
  "lon": 83.8352407,
  "tags": {
    "amenity": "place_of_worship",
    "name": "Tetang Gompa",
    "religion": "buddhist"
  }
},
{
  "type": "node",
  "id": 977466687,
  "lat": 28.9767727,
  "lon": 83.8229638,
  "tags": {
    "amenity": "place_of_worship",
    "fixme": "should be perhaps natural=cave_entrance ?",
    "name": "Runchung Cave",
    "natural": "cave",
    "religion": "buddhist"
  }
},
{
  "type": "node",
  "id": 977466688,
  "lat": 28.9773530,
  "lon": 83.8217639,
  "tags": {
    "amenity": "place_of_worship",
    "fixme": "should be perhaps natural=cave_entrance ?",
    "name": "Spring Cave",
    "natural": "cave",
    "note": "There are two caves, one with stupa inside, the other with a small spring. Location is a bit assumed as the valley walls are very steep and reception is dodgy.",
    "religion": "buddhist"
  }
},
{
  "type": "node",
  "id": 977466733,
  "lat": 29.0068591,
  "lon": 83.8604164,
  "tags": {
    "amenity": "place_of_worship",
    "name": "Geling Gompa",
    "religion": "buddhist"
  }
},
{
  "type": "node",
  "id": 977466738,
  "lat": 29.0073867,
  "lon": 83.8606612,
  "tags": {
    "amenity": "place_of_worship",
    "name": "Geling Gompa",
    "note": "Two main temple buildings, names are unknown.",
    "religion": "buddhist"
  }
},
{
  "type": "node",
  "id": 1024350424,
  "lat": 27.4953869,
  "lon": 95.3630611,
  "tags": {
    "amenity": "place_of_worship",
    "name": "Tinsukia Buddha Vihar",
    "religion": "buddhist"
  }
},
{
  "type": "node",
  "id": 1026420189,
  "lat": 27.5442018,
  "lon": 85.9621142,
  "tags": {
    "amenity": "place_of_worship",
    "name": "Rajbhir Monastery",
    "religion": "buddhist"
  }
},
{
  "type": "node",
  "id": 1046595063,
  "lat": 28.5891697,
  "lon": 84.6385859,
  "tags": {
    "access": "private",
    "amenity": "place_of_worship",
    "note": "private",
    "religion": "buddhist"
  }
},
{
  "type": "node",
  "id": 1065160422,
  "lat": 29.6603816,
  "lon": 91.1178114,
  "tags": {
    "amenity": "place_of_worship",
    "name": "龙王庙",
    "religion": "buddhist"
  }
},
{
  "type": "node",
  "id": 1185249995,
  "lat": 32.2280882,
  "lon": 78.0710313,
  "tags": {
    "amenity": "place_of_worship",
    "name": "Sakya Tangyud Gompa",
    "religion": "buddhist",
    "wheelchair": "no",
    "wikimedia_commons": "File:Sakya_Kaza_Monastery.jpg"
  }
},
{
  "type": "node",
  "id": 1189401642,
  "lat": 30.4718825,
  "lon": 78.0499353,
  "tags": {
    "amenity": "place_of_worship",
    "name": "Shedup Choephelling Temple",
    "religion": "buddhist"
  }
},
{
  "type": "node",
  "id": 1219214256,
  "lat": 30.3793399,
  "lon": 78.0870745,
  "tags": {
    "addr:city": "Dehradun",
    "addr:housenumber": "187",
    "addr:postcode": "248009",
    "addr:street": "Rajpur-Mussoorie Road",
    "amenity": "place_of_worship",
    "denomination": "sakya",
    "name": "Sakya Centre Bhuddhist Monastery",
    "religion": "buddhist",
    "website": "https://www.paldensakya.org.in/"
  }
},
{
  "type": "node",
  "id": 1221608272,
  "lat": 30.3870937,
  "lon": 78.1040927,
  "tags": {
    "amenity": "place_of_worship",
    "religion": "buddhist"
  }
},
{
  "type": "node",
  "id": 1269441929,
  "lat": 28.3802920,
  "lon": 83.8002129,
  "tags": {
    "amenity": "place_of_worship",
    "name": "Meshram Baraha Mandir",
    "religion": "buddhist"
  }
},
{
  "type": "node",
  "id": 1280030501,
  "lat": 28.7381155,
  "lon": 83.6828946,
  "tags": {
    "amenity": "place_of_worship",
    "check_date": "2025-09-01",
    "name": "Chairo Gompa",
    "religion": "buddhist"
  }
},
{
  "type": "node",
  "id": 1280030876,
  "lat": 28.7390568,
  "lon": 83.6838822,
  "tags": {
    "amenity": "place_of_worship",
    "religion": "buddhist"
  }
},
{
  "type": "node",
  "id": 1323438998,
  "lat": 26.7379466,
  "lon": 83.8904217,
  "tags": {
    "amenity": "place_of_worship",
    "name": "Tibetian Budist Temple",
    "religion": "buddhist"
  }
},
{
  "type": "node",
  "id": 1341029247,
  "lat": 27.8318181,
  "lon": 85.4489674,
  "tags": {
    "amenity": "place_of_worship",
    "name": "Buddhist Monastry (2137m)",
    "religion": "buddhist"
  }
},
{
  "type": "node",
  "id": 1345295234,
  "lat": 28.6560825,
  "lon": 84.0929940,
  "tags": {
    "amenity": "place_of_worship",
    "contact:website": "http://www.samtenling.net/eng-STL-mng",
    "name": "Karma Samten Ling Monastery",
    "religion": "buddhist",
    "website": "http://www.samtenling.net/eng-STL-mng"
  }
},
{
  "type": "node",
  "id": 1360217888,
  "lat": 31.0021754,
  "lon": 81.3621947,
  "tags": {
    "alt_name": "Zunchüpug Goinba;祖楚寺;Dzuntrülphuk Gömpa;Dzuthrul Puk Gompa",
    "amenity": "place_of_worship",
    "name": "尊追普寺",
    "name:bo": "རྫུ་འཕྲུལ་ཕུག་དགོན་པ",
    "name:en": "Zuthrul Phug Gompa",
    "name:ru": "Зутрулпук Гомпа",
    "name:zh": "尊追普寺",
    "religion": "buddhist"
  }
},
{
  "type": "node",
  "id": 1360226221,
  "lat": 31.1075736,
  "lon": 81.3209960,
  "tags": {
    "alt_name": "芝热寺;哲日普寺;折布寺;Zhira Goinba;འབྲི་ར་ཕུག་དགོན;Zhirapug Goin;Drira Gompa",
    "alt_name:en": "Diraphuk Gompa",
    "amenity": "place_of_worship",
    "denomination": "tibetan",
    "name": "འདྲི་རྭ་དགོན་པ 止热寺",
    "name:bo": "འདྲི་རྭ་དགོན་པ",
    "name:en": "Driraphuk Gompa",
    "name:ru": "Дирапхук Гомпа",
    "name:zh": "止热寺",
    "name:zh-Latn-pinyin": "Zhǐ rè sì",
    "religion": "buddhist"
  }
},
{
  "type": "node",
  "id": 1360255611,
  "lat": 31.0069317,
  "lon": 81.2975047,
  "tags": {
    "alt_name": "Gyangzhag Goinba;Gyangdrag Gompa;Jiangzha Si",
    "amenity": "place_of_worship",
    "denomination": "tibetan",
    "name": "རྒྱང་གྲགས་དགོན་པ 江扎寺",
    "name:bo": "རྒྱང་གྲགས་དགོན་པ",
    "name:en": "Gyangdrak Gompa",
    "name:ru": "Гьяндрак Гомпа",
    "name:zh": "江扎寺",
    "name:zh-Latn-pinyin": "jiāngzā sì",
    "religion": "buddhist",
    "school": "drikung kagyu",
    "source:name": "GNS"
  }
},
{
  "type": "node",
  "id": 1360273943,
  "lat": 31.0103025,
  "lon": 81.2782258,
  "tags": {
    "alt_name": "色隆寺",
    "amenity": "place_of_worship",
    "name": "སེར་ལུང་དགོན་པ 色龙寺",
    "name:bo": "སེར་ལུང་དགོན་པ",
    "name:en": "Selung Gompa",
    "name:ru": "Серлунг Гомпа",
    "name:zh": "色龙寺",
    "religion": "buddhist"
  }
},
{
  "type": "node",
  "id": 1366516164,
  "lat": 28.2962407,
  "lon": 83.8649991,
  "tags": {
    "amenity": "place_of_worship",
    "religion": "buddhist"
  }
},
{
  "type": "node",
  "id": 1398437050,
  "lat": 27.6555421,
  "lon": 85.5416954,
  "tags": {
    "amenity": "place_of_worship",
    "name": "Gumba Temple",
    "religion": "buddhist"
  }
},
{
  "type": "node",
  "id": 1417852756,
  "lat": 27.5837064,
  "lon": 85.5131685,
  "tags": {
    "amenity": "place_of_worship",
    "name": "सानो बौद्ध मन्दिर",
    "name:en": "Small Buddhist Shrine",
    "name:ne": "सानो बौद्ध मन्दिर",
    "religion": "buddhist"
  }
},
{
  "type": "node",
  "id": 1417964993,
  "lat": 27.5838166,
  "lon": 85.5156516,
  "tags": {
    "amenity": "place_of_worship",
    "designation": "small Hindu shrine",
    "name": "सानो हिन्दू मन्दिर",
    "name:en": "small Hindu shrine",
    "name:ne": "सानो हिन्दू मन्दिर",
    "religion": "buddhist",
    "source": "Garmin Orgeon 450"
  }
},
{
  "type": "node",
  "id": 1418080900,
  "lat": 27.5846056,
  "lon": 85.5149835,
  "tags": {
    "amenity": "place_of_worship",
    "designation": "stupa",
    "name": "सोरहाखुट्टे स्तूपा",
    "name:en": "Sorhakhutte Stupa",
    "name:ne": "सोरहाखुट्टे स्तूपा",
    "religion": "buddhist",
    "source": "Garmin Orgeon 450"
  }
},
{
  "type": "node",
  "id": 1428784706,
  "lat": 32.1453786,
  "lon": 78.2349260,
  "tags": {
    "amenity": "place_of_worship",
    "name": "Lhalung Gompa",
    "religion": "buddhist",
    "wikidata": "Q17050855",
    "wikipedia": "en:Lhalung Monastery"
  }
},
{
  "type": "node",
  "id": 1428784718,
  "lat": 31.8816936,
  "lon": 78.6255183,
  "tags": {
    "amenity": "place_of_worship",
    "name": "Nako Gompa",
    "religion": "buddhist"
  }
},
{
  "type": "node",
  "id": 1445160647,
  "lat": 29.3209061,
  "lon": 91.5068498,
  "tags": {
    "amenity": "place_of_worship",
    "name": "HapoRi hill temple",
    "religion": "buddhist"
  }
},
{
  "type": "node",
  "id": 1487816091,
  "lat": 27.6778602,
  "lon": 85.2776022,
  "tags": {
    "amenity": "place_of_worship",
    "name": "लोहान देगा",
    "name:en": "Lohan Degaa",
    "name:ne": "लोहान देगा",
    "religion": "buddhist"
  }
},
{
  "type": "node",
  "id": 1492311484,
  "lat": 27.8050830,
  "lon": 86.7090482,
  "tags": {
    "amenity": "place_of_worship",
    "building": "monastery",
    "name": "Namche Gompa",
    "religion": "buddhist",
    "wheelchair": "no"
  }
},
{
  "type": "node",
  "id": 1496687922,
  "lat": 27.7014444,
  "lon": 85.3046825,
  "tags": {
    "amenity": "place_of_worship",
    "name": "लखै हाउस",
    "name:en": "Lakhae House",
    "name:ne": "लखै हाउस",
    "religion": "buddhist"
  }
},
{
  "type": "node",
  "id": 1498844458,
  "lat": 27.6992022,
  "lon": 85.3074066,
  "tags": {
    "amenity": "place_of_worship",
    "check_date": "2025-06-05",
    "name": "सेतो मच्छिन्द्र नाथकी आमा",
    "name:en": "Mother Of Seto Machindra Nath",
    "name:ne": "सेतो मच्छिन्द्र नाथकी आमा",
    "religion": "buddhist"
  }
},
{
  "type": "node",
  "id": 1537553879,
  "lat": 27.6307662,
  "lon": 84.4934109,
  "tags": {
    "amenity": "place_of_worship",
    "religion": "buddhist"
  }
},
{
  "type": "node",
  "id": 1548844072,
  "lat": 28.6159702,
  "lon": 84.1543620,
  "tags": {
    "amenity": "place_of_worship",
    "name": "Upper Pisang Buddhist Temple",
    "religion": "buddhist"
  }
},
{
  "type": "node",
  "id": 1612692201,
  "lat": 31.1298461,
  "lon": 80.6399875,
  "tags": {
    "alt_name": "故如甲木寺;古如甲寺;Gurujiamu Temple;Kuru’gyam Goinba;Kuru’gyam Goin;Gurgyam Monastery",
    "alt_name:bo": "གུ་རུ་གྱམ་དགོན;གུར་གྱམ་མདོ་སྔགས་གྲགས་རྒྱས་གླིང་།;གུར་གྱམ་དགོན།",
    "amenity": "place_of_worship",
    "denomination": "tibetan",
    "name": "གུ་རུ་གྱམ་དགོན 古入江寺",
    "name:bo": "གུ་རུ་གྱམ་དགོན",
    "name:en": "Gurugyam Monastery",
    "name:zh": "古入江寺",
    "name:zh-Latn-pinyin": "gùrújiǎmù sì",
    "religion": "buddhist",
    "school": "bön",
    "source:name": "GNS",
    "wikidata": "Q10913066",
    "wikipedia": "zh:古入江寺"
  }
},
{
  "type": "node",
  "id": 1656726467,
  "lat": 27.4755787,
  "lon": 83.2783854,
  "tags": {
    "amenity": "place_of_worship",
    "name": "Gautami Nun Monastery",
    "religion": "buddhist"
  }
},
{
  "type": "node",
  "id": 1656726471,
  "lat": 27.4772045,
  "lon": 83.2780554,
  "tags": {
    "amenity": "place_of_worship",
    "name": "Myanmar Monastery",
    "religion": "buddhist"
  }
},
{
  "type": "node",
  "id": 1679191765,
  "lat": 27.8312962,
  "lon": 86.7711801,
  "tags": {
    "amenity": "place_of_worship",
    "building": "stupa",
    "religion": "buddhist"
  }
},
{
  "type": "node",
  "id": 1679203248,
  "lat": 27.5919671,
  "lon": 86.6145610,
  "tags": {
    "amenity": "place_of_worship",
    "name": "Old Stupa area",
    "religion": "buddhist"
  }
},
{
  "type": "node",
  "id": 1693407348,
  "lat": 28.3704568,
  "lon": 98.7630890,
  "tags": {
    "amenity": "place_of_worship",
    "ele": "3399",
    "name": "白玛珠普（莲花生大士禅修洞）",
    "name:en": "Baima Zhupu",
    "religion": "buddhist"
  }
},
{
  "type": "node",
  "id": 1702474400,
  "lat": 28.0171157,
  "lon": 98.6100688,
  "tags": {
    "amenity": "place_of_worship",
    "name": "仙女洞",
    "name:en": "Fairy Cave",
    "religion": "buddhist"
  }
},
{
  "type": "node",
  "id": 1736449224,
  "lat": 28.3474830,
  "lon": 83.8235170,
  "tags": {
    "amenity": "place_of_worship",
    "religion": "buddhist"
  }
},
{
  "type": "node",
  "id": 1738601883,
  "lat": 28.6540723,
  "lon": 84.0525311,
  "tags": {
    "amenity": "place_of_worship",
    "ele": "3590",
    "name": "Sher Gompa",
    "religion": "buddhist",
    "source": "survey",
    "wheelchair": "no"
  }
},
{
  "type": "node",
  "id": 1738602067,
  "lat": 28.6785695,
  "lon": 84.0595630,
  "tags": {
    "amenity": "place_of_worship",
    "ele": "4635",
    "name": "Icelake-Stupa",
    "religion": "buddhist",
    "source": "survey"
  }
},
{
  "type": "node",
  "id": 1738640461,
  "lat": 28.6568644,
  "lon": 84.0968976,
  "tags": {
    "amenity": "place_of_worship",
    "religion": "buddhist",
    "source": "survey;local knowledge"
  }
},
{
  "type": "node",
  "id": 1738640564,
  "lat": 28.6416564,
  "lon": 84.1378080,
  "tags": {
    "amenity": "place_of_worship",
    "ele": "3700",
    "name": "Ghyaru Gompa",
    "religion": "buddhist",
    "source": "survey"
  }
},
{
  "type": "node",
  "id": 1738844695,
  "lat": 28.6703344,
  "lon": 83.9740691,
  "tags": {
    "amenity": "place_of_worship",
    "name": "Khangsar Stupa",
    "religion": "buddhist"
  }
},
{
  "type": "node",
  "id": 1739998753,
  "lat": 27.8015668,
  "lon": 96.0009872,
  "tags": {
    "amenity": "place_of_worship",
    "religion": "buddhist"
  }
},
{
  "type": "node",
  "id": 1741836656,
  "lat": 28.8497798,
  "lon": 83.7845325,
  "tags": {
    "amenity": "place_of_worship",
    "religion": "buddhist",
    "source": "survey"
  }
},
{
  "type": "node",
  "id": 1742579542,
  "lat": 28.4704899,
  "lon": 84.3749637,
  "tags": {
    "amenity": "place_of_worship",
    "fixme": "position",
    "name": "Tal Gompa",
    "religion": "buddhist",
    "source": "survey",
    "wheelchair": "limited"
  }
},
{
  "type": "node",
  "id": 1743137967,
  "lat": 28.5272565,
  "lon": 84.3538338,
  "tags": {
    "amenity": "place_of_worship",
    "name": "Thoche Gompa",
    "religion": "buddhist",
    "source": "survey"
  }
},
{
  "type": "node",
  "id": 1743138280,
  "lat": 28.5520954,
  "lon": 84.2587478,
  "tags": {
    "amenity": "place_of_worship",
    "name": "Gompa",
    "religion": "buddhist",
    "source": "survey"
  }
},
{
  "type": "node",
  "id": 1743294208,
  "lat": 28.8407632,
  "lon": 83.7865610,
  "tags": {
    "amenity": "place_of_worship",
    "check_date": "2025-08-30",
    "fixme": "tag",
    "name": "Kagbeni Stupa",
    "religion": "buddhist",
    "source": "survey"
  }
},
{
  "type": "node",
  "id": 1743294354,
  "lat": 28.8268379,
  "lon": 83.8538081,
  "tags": {
    "amenity": "place_of_worship",
    "name": "Jhong Gompa",
    "religion": "buddhist",
    "source": "survey"
  }
},
{
  "type": "node",
  "id": 1755809419,
  "lat": 31.5253531,
  "lon": 98.8423586,
  "tags": {
    "alt_name:en": "Pewar Gompa;Pewar Gonpa;Baimengsi",
    "alt_name:zh": "白垭寺;百梦寺",
    "amenity": "place_of_worship",
    "denomination": "tibetan",
    "name": "白雅寺",
    "name:bo": "དཔེ་ཝར་དགོན།",
    "name:en": "Pewar Monastery",
    "name:zh": "白雅寺",
    "religion": "buddhist",
    "source": "GNS",
    "wikidata": "Q108037051"
  }
},
{
  "type": "node",
  "id": 1755809467,
  "lat": 30.8062289,
  "lon": 98.9799625,
  "tags": {
    "alt_name": "刊贡寺;Kangongsi;Kawong Gompa;Khamü Gön",
    "amenity": "place_of_worship",
    "denomination": "tibetan",
    "name": "ཁམས་དབུས་དགོན། 康翁寺",
    "name:bo": "ཁམས་དབུས་དགོན།",
    "name:en": "Kangweng Monastery",
    "name:zh": "康翁寺",
    "religion": "buddhist",
    "source:name": "GNS",
    "wikidata": "Q108038524"
  }
},
{
  "type": "node",
  "id": 1755861665,
  "lat": 31.9179684,
  "lon": 98.8118666,
  "tags": {
    "alt_name": "Menzha si",
    "alt_name:bo": "སྡེ་དགེ་མཎྜལ་དགོན།",
    "amenity": "place_of_worship",
    "denomination": "tibetan",
    "name": "མཎྜལ་དགོན། 门查寺",
    "name:bo": "མཎྜལ་དགོན།",
    "name:en": "Mandal Gön",
    "name:zh": "门查寺",
    "religion": "buddhist",
    "source": "bing",
    "source:name": "GNS",
    "wikidata": "Q108032236"
  }
},
{
  "type": "node",
  "id": 1787042045,
  "lat": 27.6687013,
  "lon": 85.3262590,
  "tags": {
    "amenity": "place_of_worship",
    "name": "जेठा बहाल",
    "name:en": "Jetha Bahal",
    "name:ne": "जेठा बहाल",
    "religion": "buddhist"
  }
},
{
  "type": "node",
  "id": 1833834712,
  "lat": 27.6348182,
  "lon": 85.5275519,
  "tags": {
    "amenity": "place_of_worship",
    "name": "दिगु ड्यो",
    "name:en": "Digu Dyo",
    "name:ne": "दिगु ड्यो",
    "name:new": "दिगु द्यः",
    "religion": "buddhist"
  }
},
{
  "type": "node",
  "id": 1833834958,
  "lat": 27.6123454,
  "lon": 85.5664444,
  "tags": {
    "amenity": "place_of_worship",
    "name": "शान्ति बन",
    "name:en": "Shanti Ban",
    "name:ne": "शान्ति बन",
    "religion": "buddhist"
  }
},
{
  "type": "node",
  "id": 1902458721,
  "lat": 28.9623699,
  "lon": 83.7999050,
  "tags": {
    "amenity": "place_of_worship",
    "name": "Orgyen Drub Guye Gompa",
    "religion": "buddhist"
  }
},
{
  "type": "node",
  "id": 1905854279,
  "lat": 27.6995719,
  "lon": 84.4237078,
  "tags": {
    "amenity": "place_of_worship",
    "name": "Chitrawan Buddha Bihar",
    "religion": "buddhist"
  }
},
{
  "type": "node",
  "id": 1905884122,
  "lat": 27.7022606,
  "lon": 84.4405014,
  "tags": {
    "addr:city": "Narayangarh",
    "addr:housenumber": "Bypass Road",
    "addr:street": "Mini Ring Road",
    "amenity": "place_of_worship",
    "name": "Tinkhol Mahabauddha Gomba",
    "religion": "buddhist",
    "service_times": "24/7"
  }
},
{
  "type": "node",
  "id": 1909715370,
  "lat": 28.9141527,
  "lon": 83.8200477,
  "tags": {
    "amenity": "place_of_worship",
    "religion": "buddhist"
  }
},
{
  "type": "node",
  "id": 1919924427,
  "lat": 31.6292989,
  "lon": 78.0196954,
  "tags": {
    "amenity": "place_of_worship",
    "name": "Gompa",
    "religion": "buddhist"
  }
},
{
  "type": "node",
  "id": 1934751081,
  "lat": 32.0887089,
  "lon": 78.2165840,
  "tags": {
    "amenity": "place_of_worship",
    "name": "New Dankhar Gompa",
    "religion": "buddhist"
  }
},
{
  "type": "node",
  "id": 1937721990,
  "lat": 27.6744901,
  "lon": 85.3197893,
  "tags": {
    "amenity": "place_of_worship",
    "name": "पद्मावती महा बिहार",
    "name:en": "Padmavati Maha Bihar",
    "name:ne": "पद्मावती महा बिहार",
    "religion": "buddhist"
  }
},
{
  "type": "node",
  "id": 1962239828,
  "lat": 27.6729010,
  "lon": 85.3131022,
  "tags": {
    "amenity": "place_of_worship",
    "name": "chariot end point",
    "name:en": "chariot end point",
    "religion": "buddhist"
  }
},
{
  "type": "node",
  "id": 1978897338,
  "lat": 27.4879925,
  "lon": 89.3571208,
  "tags": {
    "amenity": "place_of_worship",
    "name": "Prayer wheel",
    "name:es": "Rueda de Oración",
    "religion": "buddhist"
  }
},
{
  "type": "node",
  "id": 1984322383,
  "lat": 27.4464098,
  "lon": 89.5145215,
  "tags": {
    "amenity": "place_of_worship",
    "name": "Chorten",
    "religion": "buddhist"
  }
},
{
  "type": "node",
  "id": 2000863552,
  "lat": 27.6658117,
  "lon": 85.2917351,
  "tags": {
    "amenity": "place_of_worship",
    "name": "अमिताम्भा बुद्ध स्तूप",
    "name:en": "Amitambha Budhha Stupa",
    "name:ne": "अमिताम्भा बुद्ध स्तूप",
    "religion": "buddhist"
  }
},
{
  "type": "node",
  "id": 2032061973,
  "lat": 27.5224685,
  "lon": 89.8738366,
  "tags": {
    "amenity": "place_of_worship",
    "name": "Chorten",
    "religion": "buddhist"
  }
},
{
  "type": "node",
  "id": 2035053702,
  "lat": 27.4252514,
  "lon": 91.5641317,
  "tags": {
    "amenity": "place_of_worship",
    "name": "Gom Kora",
    "religion": "buddhist"
  }
},
{
  "type": "node",
  "id": 2035069770,
  "lat": 27.5848182,
  "lon": 91.4935038,
  "tags": {
    "amenity": "place_of_worship",
    "name": "Old Trashiyangtse Dzong",
    "religion": "buddhist"
  }
},
{
  "type": "node",
  "id": 2035083066,
  "lat": 27.6060099,
  "lon": 91.4948556,
  "tags": {
    "amenity": "place_of_worship",
    "name": "Chorten Kora",
    "religion": "buddhist"
  }
},
{
  "type": "node",
  "id": 2046781591,
  "lat": 26.7372451,
  "lon": 83.8919876,
  "tags": {
    "amenity": "place_of_worship",
    "name": "Japan-Sri Lanka Temple",
    "religion": "buddhist"
  }
},
{
  "type": "node",
  "id": 2046970873,
  "lat": 26.7383690,
  "lon": 83.8939199,
  "tags": {
    "amenity": "place_of_worship",
    "name": "Korean Buddhist Temple",
    "religion": "buddhist"
  }
},
{
  "type": "node",
  "id": 2106725684,
  "lat": 27.6699138,
  "lon": 85.2783227,
  "tags": {
    "amenity": "place_of_worship",
    "name": "पाहु चिबा",
    "name:en": "Pahu Chiba",
    "name:ne": "पाहु चिबा",
    "religion": "buddhist"
  }
},
{
  "type": "node",
  "id": 2106732713,
  "lat": 27.6693964,
  "lon": 85.2780108,
  "tags": {
    "amenity": "place_of_worship",
    "name": "हेखली चिबा",
    "name:en": "Hekhali Chiba",
    "name:ne": "हेखली चिबा",
    "religion": "buddhist"
  }
},
{
  "type": "node",
  "id": 2108082399,
  "lat": 27.6692241,
  "lon": 85.2771790,
  "tags": {
    "amenity": "place_of_worship",
    "religion": "buddhist"
  }
},
{
  "type": "node",
  "id": 2108082404,
  "lat": 27.6693360,
  "lon": 85.2770011,
  "tags": {
    "amenity": "place_of_worship",
    "name": "महन्बा चिबा",
    "name:en": "Mahanbwa Chiba",
    "name:ne": "महन्बा चिबा",
    "religion": "buddhist"
  }
},
{
  "type": "node",
  "id": 2110225735,
  "lat": 27.6685405,
  "lon": 85.2761049,
  "tags": {
    "amenity": "place_of_worship",
    "name": "दथल चिबा",
    "name:en": "Dathal Chiba",
    "name:ne": "दथल चिबा",
    "religion": "buddhist"
  }
},
{
  "type": "node",
  "id": 2110225737,
  "lat": 27.6688527,
  "lon": 85.2767325,
  "tags": {
    "amenity": "place_of_worship",
    "name": "ध्वा-खा-फाह चिबा",
    "name:en": "Dhwa-kha-phah Chiba",
    "name:ne": "ध्वा-खा-फाह चिबा",
    "religion": "buddhist"
  }
},
{
  "type": "node",
  "id": 2110225741,
  "lat": 27.6694778,
  "lon": 85.2768578,
  "tags": {
    "amenity": "place_of_worship",
    "name": "लिआ-बा चिबा",
    "name:en": "Lya-ba Chiba",
    "name:ne": "लिआ-बा चिबा",
    "religion": "buddhist"
  }
},
{
  "type": "node",
  "id": 2110319224,
  "lat": 27.5848802,
  "lon": 85.5152725,
  "tags": {
    "amenity": "place_of_worship",
    "name": "नु बाहल",
    "name:en": "nhu bahal",
    "name:ne": "नु बाहल",
    "religion": "buddhist"
  }
},
{
  "type": "node",
  "id": 2131315028,
  "lat": 27.6787088,
  "lon": 85.3289821,
  "tags": {
    "amenity": "place_of_worship",
    "name": "Chibaha",
    "religion": "buddhist"
  }
},
{
  "type": "node",
  "id": 2132509662,
  "lat": 26.8869678,
  "lon": 88.1906657,
  "tags": {
    "amenity": "place_of_worship",
    "name": "Boker Monastery",
    "religion": "buddhist"
  }
},
{
  "type": "node",
  "id": 2148872484,
  "lat": 29.1274282,
  "lon": 88.9923495,
  "tags": {
    "alt_name": "ཞ་ལུ་དགོན།;ཞྭ་ལུ་དགོན;Zhalu Monastery",
    "amenity": "place_of_worship",
    "denomination": "tibetan",
    "name": "ཞ་ལུ་དགོན་པ (夏鲁寺)",
    "name:bo": "ཞ་ལུ་དགོན་པ",
    "name:de": "Shalu-Kloster",
    "name:en": "Shalu Monastery",
    "name:zh": "夏鲁寺",
    "religion": "buddhist",
    "source": "bing",
    "wikidata": "Q25681",
    "wikipedia": "zh:夏鲁寺"
  }
},
{
  "type": "node",
  "id": 2155539866,
  "lat": 26.8953729,
  "lon": 88.0617499,
  "tags": {
    "addr:housename": "Fansong Gumba",
    "amenity": "place_of_worship",
    "building": "yes",
    "name": "Lepcha monastery",
    "religion": "buddhist"
  }
},
{
  "type": "node",
  "id": 2210253126,
  "lat": 27.2888395,
  "lon": 88.5613237,
  "tags": {
    "amenity": "place_of_worship",
    "name": "Golden stupa",
    "religion": "buddhist"
  }
},
{
  "type": "node",
  "id": 2210253134,
  "lat": 27.3308234,
  "lon": 88.5793628,
  "tags": {
    "amenity": "place_of_worship",
    "name": "Lingdum Monastery",
    "religion": "buddhist",
    "wikimedia_commons": "File:Lingdum Zurmang Kharwang Gonpa or Ranka Monastery in East Sikkim 14.jpg"
  }
},
{
  "type": "node",
  "id": 2210253138,
  "lat": 27.3199783,
  "lon": 88.5604294,
  "tags": {
    "amenity": "place_of_worship",
    "name": "Rey Monastery",
    "religion": "buddhist"
  }
},
{
  "type": "node",
  "id": 2214585948,
  "lat": 27.6965321,
  "lon": 85.2869954,
  "tags": {
    "addr:city": "Kathmandu",
    "addr:housenumber": "370/74",
    "addr:street": "Matatirtha Marg",
    "amenity": "place_of_worship",
    "denomination": "mahayana",
    "name": "नेपाल सोका गक्काई इन्टरनेशनल",
    "name:en": "Nepal Soka Gakkai International",
    "name:ne": "नेपाल सोका गक्काई इन्टरनेशनल",
    "religion": "buddhist",
    "website": "https://www.nepalsgi.org/"
  }
},
{
  "type": "node",
  "id": 2218694125,
  "lat": 27.4800565,
  "lon": 83.2732613,
  "tags": {
    "amenity": "place_of_worship",
    "name": "Geden International Monastery (Austria)",
    "opening_hours": "We-Mo 08:00-12:00, 13:00-17:00",
    "religion": "buddhist"
  }
},
{
  "type": "node",
  "id": 2218694129,
  "lat": 27.4783908,
  "lon": 83.2781309,
  "tags": {
    "amenity": "place_of_worship",
    "name": "Cambodia Monastery",
    "religion": "buddhist"
  }
},
{
  "type": "node",
  "id": 2218694148,
  "lat": 27.4817498,
  "lon": 83.2788352,
  "tags": {
    "amenity": "place_of_worship",
    "name": "Royal Thai Monastery",
    "name:th": "วัดไทยลุมพินี",
    "religion": "buddhist",
    "wikidata": "Q13020937",
    "wikipedia": "th:วัดไทยลุมพินี"
  }
},
{
  "type": "node",
  "id": 2218694150,
  "lat": 27.4762015,
  "lon": 83.2771171,
  "tags": {
    "amenity": "place_of_worship",
    "name": "Vipassana Center",
    "religion": "buddhist"
  }
},
{
  "type": "node",
  "id": 2220703613,
  "lat": 27.6766585,
  "lon": 85.3277745,
  "tags": {
    "amenity": "place_of_worship",
    "name": "Karuna Bahi",
    "religion": "buddhist"
  }
},
{
  "type": "node",
  "id": 2220703618,
  "lat": 27.6768105,
  "lon": 85.3278791,
  "tags": {
    "amenity": "place_of_worship",
    "name": "Yampi Bahi",
    "religion": "buddhist"
  }
},
{
  "type": "node",
  "id": 2224243799,
  "lat": 27.6746115,
  "lon": 85.3277392,
  "tags": {
    "amenity": "place_of_worship",
    "name": "Vaisajya Bihar",
    "religion": "buddhist"
  }
},
{
  "type": "node",
  "id": 2224243811,
  "lat": 27.6749512,
  "lon": 85.3278545,
  "tags": {
    "amenity": "place_of_worship",
    "name": "मनिकुटा बिहार",
    "name:en": "Manikuta Bihar",
    "name:ne": "मनिकुटा बिहार",
    "religion": "buddhist"
  }
},
{
  "type": "node",
  "id": 2224512177,
  "lat": 27.6734142,
  "lon": 85.3288872,
  "tags": {
    "amenity": "place_of_worship",
    "name": "चियाग्मा",
    "name:en": "Chyagma",
    "name:ne": "चियाग्मा",
    "religion": "buddhist"
  }
},
{
  "type": "node",
  "id": 2238995327,
  "lat": 29.9846308,
  "lon": 91.9311356,
  "tags": {
    "amenity": "place_of_worship",
    "denomination": "tibetan",
    "religion": "buddhist"
  }
},
{
  "type": "node",
  "id": 2254893130,
  "lat": 27.5094864,
  "lon": 82.0394972,
  "tags": {
    "amenity": "place_of_worship",
    "name": "Gandha Kuti",
    "religion": "buddhist"
  }
},
{
  "type": "node",
  "id": 2322653092,
  "lat": 27.9374245,
  "lon": 85.4816918,
  "tags": {
    "amenity": "place_of_worship",
    "man_made": "tower",
    "name": "Stupa",
    "religion": "buddhist",
    "tower:type": "stupa"
  }
},
{
  "type": "node",
  "id": 2355771274,
  "lat": 32.2663758,
  "lon": 98.8856428,
  "tags": {
    "alt_name": "Zhechen Gompa;雪謙寺;協慶寺",
    "alt_name:bo": "སྡེ་དགེ་ཟེ་ཆེན་དགོན;སྡེ་དགེ་ཞེ་ཆེན་དགོན;ཟེ་ཆེན་དགོན;ཞེ་ཆེན་བསྟན་གཉིས་དར་རྒྱས་གླིང",
    "amenity": "place_of_worship",
    "denomination": "tibetan",
    "int_name": "Shechen",
    "name": "ཞེ་ཆེན་དགོན 协庆寺",
    "name:bo": "ཞེ་ཆེན་དགོན།",
    "name:de": "Shechen-Kloster",
    "name:en": "Shechen Monastery",
    "name:hi": "शेछेन गोन्प",
    "name:ml": "ഷേഖൻ മൊണാസ്റ്ററി",
    "name:my": "ရှီချန်းကျောင်းတော်",
    "name:ru": "Шечен",
    "name:zh": "协庆寺",
    "name:zh-Latn-pinyin": "xuěqiān sì",
    "opening_hours": "24/7",
    "religion": "buddhist",
    "source": "bing",
    "source:name": "GNS",
    "website": "https://www.shechen.org/",
    "wikidata": "Q1552180",
    "wikipedia": "bo:ཞེ་ཆེན་དགོན།"
  }
},
{
  "type": "node",
  "id": 2363296228,
  "lat": 31.5972777,
  "lon": 98.6424241,
  "tags": {
    "alt_name": "Jiaoya Monastery;Changra Gön;Chakra Gön;Changra Gomba",
    "alt_name:bo": "ལྕང་ར་དགོན;སྡེ་དགེ་ལྕགས་ར་དགོན",
    "amenity": "place_of_worship",
    "denomination": "tibetan",
    "name": "ལྕགས་ར་དགོན 交哑寺",
    "name:bo": "ལྕགས་ར་དགོན",
    "name:en": "Chakra Monastery",
    "name:zh": "交哑寺",
    "religion": "buddhist",
    "wikidata": "Q108038465"
  }
},
{
  "type": "node",
  "id": 2382145318,
  "lat": 27.3148496,
  "lon": 89.5473794,
  "tags": {
    "amenity": "place_of_worship",
    "man_made": "stupa",
    "name": "3 chorten (3 Stupas)",
    "religion": "buddhist",
    "source": "personal visitation"
  }
},
{
  "type": "node",
  "id": 2405480536,
  "lat": 27.0233748,
  "lon": 88.0834907,
  "tags": {
    "amenity": "place_of_worship",
    "name": "Meghma Gompa",
    "religion": "buddhist"
  }
},
{
  "type": "node",
  "id": 2418786406,
  "lat": 33.3616169,
  "lon": 78.0247896,
  "tags": {
    "amenity": "place_of_worship",
    "building": "yes",
    "name": "Thukje Monastery",
    "religion": "buddhist"
  }
},
{
  "type": "node",
  "id": 2429072835,
  "lat": 28.8175592,
  "lon": 83.8724526,
  "tags": {
    "amenity": "place_of_worship",
    "name": "Fire Gompa",
    "religion": "buddhist",
    "wheelchair": "limited"
  }
},
{
  "type": "node",
  "id": 2429072836,
  "lat": 28.8172364,
  "lon": 83.8704423,
  "tags": {
    "amenity": "place_of_worship",
    "name": "Samba Gompa",
    "religion": "buddhist",
    "wheelchair": "limited"
  }
},
{
  "type": "node",
  "id": 2458993892,
  "lat": 27.9051331,
  "lon": 84.5435652,
  "tags": {
    "addr:city": "Aanbu Khaireni",
    "addr:postcode": "33905",
    "amenity": "place_of_worship",
    "name": "Gumba",
    "religion": "buddhist"
  }
},
{
  "type": "node",
  "id": 2460373870,
  "lat": 27.8251512,
  "lon": 86.7161834,
  "tags": {
    "amenity": "place_of_worship",
    "name": "Khumjung Gompa",
    "religion": "buddhist"
  }
},
{
  "type": "node",
  "id": 2545831680,
  "lat": 29.3157914,
  "lon": 91.5062518,
  "tags": {
    "amenity": "place_of_worship",
    "building": "yes",
    "religion": "buddhist"
  }
},
{
  "type": "node",
  "id": 2545831681,
  "lat": 29.3123067,
  "lon": 91.5031136,
  "tags": {
    "amenity": "place_of_worship",
    "building": "yes",
    "religion": "buddhist"
  }
},
{
  "type": "node",
  "id": 2554094437,
  "lat": 28.2088425,
  "lon": 85.3146851,
  "tags": {
    "amenity": "place_of_worship",
    "religion": "buddhist"
  }
},
{
  "type": "node",
  "id": 2554587254,
  "lat": 28.2042857,
  "lon": 85.3087242,
  "tags": {
    "amenity": "place_of_worship",
    "religion": "buddhist"
  }
},
{
  "type": "node",
  "id": 2591254206,
  "lat": 27.6706479,
  "lon": 85.2775974,
  "tags": {
    "amenity": "place_of_worship",
    "name": "पबित्रा बिहार",
    "name:en": "Pabitra Bihar",
    "name:ne": "पबित्रा बिहार",
    "religion": "buddhist"
  }
},
{
  "type": "node",
  "id": 2591261168,
  "lat": 27.6701907,
  "lon": 85.2778662,
  "tags": {
    "amenity": "place_of_worship",
    "name": "ल्याबा चिबा",
    "name:en": "Lyaba Chiba",
    "name:ne": "ल्याबा चिबा",
    "religion": "buddhist"
  }
},
{
  "type": "node",
  "id": 2642013171,
  "lat": 28.6665194,
  "lon": 84.0269033,
  "tags": {
    "amenity": "place_of_worship",
    "name": "Stupa",
    "religion": "buddhist",
    "source": "Bing",
    "wheelchair": "yes"
  }
},
{
  "type": "node",
  "id": 2642063084,
  "lat": 28.6702757,
  "lon": 84.0153612,
  "tags": {
    "amenity": "place_of_worship",
    "religion": "buddhist",
    "source": "Bing"
  }
},
{
  "type": "node",
  "id": 2664670127,
  "lat": 32.2689613,
  "lon": 96.8197346,
  "tags": {
    "alt_name": "Surmang Namgyel Tse",
    "amenity": "place_of_worship",
    "denomination": "tibetan",
    "int_name": "Surmang Namgyel Tse",
    "name": "ཟུར་མང་དགོན་པ",
    "name:bo": "ཟུར་མང་དགོན་པ",
    "name:en": "Surmang Namgyel Tse Monastery",
    "name:zh": "苏莽囊杰则寺",
    "religion": "buddhist",
    "wikidata": "Q1507530",
    "wikipedia": "en:Surmang"
  }
},
{
  "type": "node",
  "id": 2669234189,
  "lat": 28.8193437,
  "lon": 83.8482997,
  "tags": {
    "addr:city": "Jharkot",
    "amenity": "place_of_worship",
    "name": "Jhar Chode",
    "name:en": "Jharkot Monastery",
    "religion": "buddhist",
    "source": "survey"
  }
},
{
  "type": "node",
  "id": 2672017047,
  "lat": 26.0314568,
  "lon": 89.2949924,
  "tags": {
    "amenity": "place_of_worship",
    "name": "Chandrapur Temple",
    "religion": "buddhist"
  }
},
{
  "type": "node",
  "id": 2684754389,
  "lat": 27.6712151,
  "lon": 85.3150658,
  "tags": {
    "amenity": "place_of_worship",
    "name": "बुद्ध मूर्ति",
    "name:en": "Buddha Statue",
    "name:ne": "बुद्ध मूर्ति",
    "religion": "buddhist"
  }
},
{
  "type": "node",
  "id": 2684758105,
  "lat": 27.6678389,
  "lon": 85.3092633,
  "tags": {
    "amenity": "place_of_worship",
    "name": "तिबेटियन गुम्बा",
    "name:en": "Tibetan Gumba",
    "name:ne": "तिबेटियन गुम्बा",
    "religion": "buddhist"
  }
},
{
  "type": "node",
  "id": 2706933098,
  "lat": 32.0499462,
  "lon": 96.0133410,
  "tags": {
    "amenity": "place_of_worship",
    "denomination": "tibetan",
    "historic": "wayside_shrine",
    "note": "tibetian prayer flag",
    "place_of_worship:type": "prayer_flags",
    "religion": "buddhist"
  }
},
{
  "type": "node",
  "id": 2706933735,
  "lat": 32.0591851,
  "lon": 95.9268164,
  "tags": {
    "amenity": "place_of_worship",
    "denomination": "tibetan",
    "place_of_worship:type": "prayer_flags",
    "religion": "buddhist"
  }
},
{
  "type": "node",
  "id": 2706934524,
  "lat": 32.0702638,
  "lon": 95.9913374,
  "tags": {
    "amenity": "place_of_worship",
    "denomination": "tibetan",
    "historic": "wayside_shrine",
    "place_of_worship:type": "prayer_flags",
    "religion": "buddhist"
  }
},
{
  "type": "node",
  "id": 2707194626,
  "lat": 32.0880196,
  "lon": 95.9884870,
  "tags": {
    "amenity": "place_of_worship",
    "denomination": "tibetan",
    "historic": "wayside_shrine",
    "place_of_worship:type": "prayer_flags",
    "religion": "buddhist"
  }
},
{
  "type": "node",
  "id": 2707194632,
  "lat": 32.0898335,
  "lon": 95.9880203,
  "tags": {
    "amenity": "place_of_worship",
    "denomination": "tibetan",
    "historic": "wayside_shrine",
    "place_of_worship:type": "prayer_flags",
    "religion": "buddhist"
  }
},
{
  "type": "node",
  "id": 2707195926,
  "lat": 32.2367957,
  "lon": 96.0460066,
  "tags": {
    "amenity": "place_of_worship",
    "denomination": "tibetan",
    "historic": "wayside_shrine",
    "note": "tibetian prayer flag",
    "place_of_worship:type": "prayer_flags",
    "religion": "buddhist"
  }
},
{
  "type": "node",
  "id": 2710556658,
  "lat": 29.7457823,
  "lon": 91.2784356,
  "tags": {
    "alt_name": "Zhayeba Si;扎耶巴寺;叶巴寺;Chagyêrba;Druk Yerpa;Dagyeba;Dayerpa;Brag Yer-pa;Drak Yerpa;Yerpa;ཡེར་པ",
    "alt_name:bo": "གཡེར་པ་དགོན།",
    "amenity": "place_of_worship",
    "name": "བྲག་ཡེར་པ 扎叶巴寺",
    "name:bo": "བྲག་ཡེར་པ",
    "name:cs": "Jerpa",
    "name:de": "Yerpa-Kloster",
    "name:en": "Yerpa Monastery",
    "name:hu": "Jerpa kolostor",
    "name:ru": "Чагъерба",
    "name:zh": "扎叶巴寺",
    "religion": "buddhist",
    "wikidata": "Q1254536",
    "wikipedia": "zh:扎叶巴寺"
  }
},
{
  "type": "node",
  "id": 2711425926,
  "lat": 30.6415019,
  "lon": 93.2468405,
  "tags": {
    "amenity": "place_of_worship",
    "denomination": "tibetan",
    "religion": "buddhist"
  }
},
{
  "type": "node",
  "id": 2721604208,
  "lat": 31.7808367,
  "lon": 87.2332648,
  "tags": {
    "amenity": "place_of_worship",
    "denomination": "tibetan",
    "place_of_worship": "prayer_flags",
    "religion": "buddhist"
  }
},
{
  "type": "node",
  "id": 2726933428,
  "lat": 29.2450817,
  "lon": 90.4964351,
  "tags": {
    "amenity": "place_of_worship",
    "denomination": "tibetan",
    "religion": "buddhist"
  }
},
{
  "type": "node",
  "id": 2796216282,
  "lat": 28.6570779,
  "lon": 84.0407750,
  "tags": {
    "amenity": "place_of_worship",
    "name": "Chorten de Braga",
    "religion": "buddhist",
    "wayside_shrine": "stupa"
  }
},
{
  "type": "node",
  "id": 2831283460,
  "lat": 31.4270726,
  "lon": 78.5829733,
  "tags": {
    "amenity": "place_of_worship",
    "name": "Rangkrik Monastery",
    "religion": "buddhist"
  }
},
{
  "type": "node",
  "id": 2831583935,
  "lat": 33.1475294,
  "lon": 98.1158034,
  "tags": {
    "alt_name": "格孟寺;Gemang Gön",
    "alt_name:bo": "བྲ་མ་བར་མི་དགོན;བྲ་མའི་སྒྲུབ་སྡེ;བྲ་མ་དགོན;སེར་ཤུལ་དགེ་མང་དགོན;རྫ་རྒྱུད་དགེ་མང་དགོན",
    "amenity": "place_of_worship",
    "denomination": "tibetan",
    "name": "དགེ་མང་དགོན 格蒙寺",
    "name:bo": "དགེ་མང་དགོན",
    "name:en": "Gemang Monastery",
    "name:zh": "格蒙寺",
    "religion": "buddhist",
    "school": "Nyingma",
    "wikidata": "Q108038824"
  }
},
{
  "type": "node",
  "id": 2831583936,
  "lat": 33.1300136,
  "lon": 98.1322434,
  "tags": {
    "alt_name": "谷龙寺;Kilung Gön",
    "amenity": "place_of_worship",
    "denomination": "tibetan",
    "fixme": "two different monasteries ?",
    "name": "ཀིཿལུང་དགོན། 格龙寺",
    "name:bo": "ཀིཿལུང་དགོན།",
    "name:en": "Kilung Monastery",
    "name:zh": "格龙寺",
    "name:zh-Latn-pinyin": "gélóng sì",
    "religion": "buddhist",
    "school": "Nyingma"
  }
},
{
  "type": "node",
  "id": 2837152940,
  "lat": 33.1525632,
  "lon": 98.5054461,
  "tags": {
    "amenity": "place_of_worship",
    "denomination": "bud",
    "name": "松格玛尼城",
    "name:en": "Songge Mani stone town",
    "name:zh": "松格玛尼城",
    "religion": "buddhist"
  }
},
{
  "type": "node",
  "id": 2841326445,
  "lat": 28.7759952,
  "lon": 84.2749484,
  "tags": {
    "addr:city": "phu manang",
    "amenity": "place_of_worship",
    "description": "very important place for Buddhists.",
    "name": "Tashi Lakhang Gompa",
    "religion": "buddhist"
  }
},
{
  "type": "node",
  "id": 2852823435,
  "lat": 28.1736074,
  "lon": 85.3610182,
  "tags": {
    "amenity": "place_of_worship",
    "denomination": "tibetan",
    "religion": "buddhist"
  }
},
{
  "type": "node",
  "id": 2852823436,
  "lat": 28.1687627,
  "lon": 85.3440916,
  "tags": {
    "amenity": "place_of_worship",
    "religion": "buddhist",
    "source": "GPS"
  }
},
{
  "type": "node",
  "id": 2852823442,
  "lat": 28.1631313,
  "lon": 85.3821313,
  "tags": {
    "amenity": "place_of_worship",
    "name": "Langtasa",
    "religion": "buddhist",
    "source": "GPS"
  }
},
{
  "type": "node",
  "id": 2857828925,
  "lat": 28.1995838,
  "lon": 85.4571350,
  "tags": {
    "amenity": "place_of_worship",
    "religion": "buddhist",
    "source": "GPS"
  }
},
{
  "type": "node",
  "id": 2857861343,
  "lat": 28.2099735,
  "lon": 85.5464178,
  "tags": {
    "amenity": "place_of_worship",
    "name:en": "Chorten",
    "religion": "buddhist",
    "source": "GPS"
  }
},
{
  "type": "node",
  "id": 2857867894,
  "lat": 28.2106020,
  "lon": 85.5561959,
  "tags": {
    "amenity": "place_of_worship",
    "name:en": "Stupa",
    "religion": "buddhist",
    "source": "GPS"
  }
},
{
  "type": "node",
  "id": 2857874753,
  "lat": 28.2173371,
  "lon": 85.4979618,
  "tags": {
    "amenity": "place_of_worship",
    "building": "ruins",
    "religion": "buddhist"
  }
},
{
  "type": "node",
  "id": 2857881055,
  "lat": 28.1985533,
  "lon": 85.5884332,
  "tags": {
    "amenity": "place_of_worship",
    "religion": "buddhist",
    "ruins": "yes",
    "source": "GPS"
  }
},
{
  "type": "node",
  "id": 2868212913,
  "lat": 29.7132857,
  "lon": 91.1225121,
  "tags": {
    "amenity": "place_of_worship",
    "name": "曲桑日追",
    "religion": "buddhist",
    "wikidata": "Q5116497"
  }
},
{
  "type": "node",
  "id": 2868224065,
  "lat": 29.7238176,
  "lon": 91.1288646,
  "tags": {
    "amenity": "place_of_worship",
    "name": "阿尼广巴",
    "religion": "buddhist"
  }
},
{
  "type": "node",
  "id": 2868224066,
  "lat": 29.7201540,
  "lon": 91.1240544,
  "tags": {
    "amenity": "place_of_worship",
    "name": "扎西曲林寺",
    "religion": "buddhist"
  }
},
{
  "type": "node",
  "id": 2868237482,
  "lat": 29.7102833,
  "lon": 91.1500224,
  "tags": {
    "amenity": "place_of_worship",
    "name": "普布觉寺",
    "religion": "buddhist"
  }
},
{
  "type": "node",
  "id": 2868237649,
  "lat": 29.7026332,
  "lon": 91.1461792,
  "tags": {
    "amenity": "place_of_worship",
    "name": "格桑寺",
    "religion": "buddhist"
  }
},
{
  "type": "node",
  "id": 2868349083,
  "lat": 29.7056233,
  "lon": 91.1385797,
  "tags": {
    "amenity": "place_of_worship",
    "name": "萨卡扎日",
    "religion": "buddhist"
  }
},
{
  "type": "node",
  "id": 2868364977,
  "lat": 29.7389747,
  "lon": 91.1147750,
  "tags": {
    "amenity": "place_of_worship",
    "name": "卡日寺",
    "religion": "buddhist"
  }
},
{
  "type": "node",
  "id": 2869525351,
  "lat": 29.7267723,
  "lon": 90.5753875,
  "tags": {
    "alt_name": "祖普寺;མཚུར་མདོ་བོ་ལུང་གི་གཙུག་ལག་ཁང;སྟོད་ལུང་མཚུར་ཕུ་དགོན;འོག་མིན་མཚུར་ཕུ་དགོན",
    "amenity": "place_of_worship",
    "name": "མཚུར་ཕུ་དགོན (楚布寺)",
    "name:bo": "མཚུར་ཕུ་དགོན",
    "name:en": "Tsurphu Monastery",
    "name:zh": "楚布寺",
    "religion": "buddhist",
    "wikidata": "Q927302",
    "wikipedia": "zh:楚布寺"
  }
},
{
  "type": "node",
  "id": 2874458660,
  "lat": 31.1880620,
  "lon": 94.0862037,
  "tags": {
    "amenity": "place_of_worship",
    "name": "鲁咔寺",
    "religion": "buddhist"
  }
},
{
  "type": "node",
  "id": 3017454986,
  "lat": 29.7723914,
  "lon": 95.6999566,
  "tags": {
    "alt_name:en": "Gawalung Gompa",
    "alt_name:zh": "嘎瓦龙寺",
    "amenity": "place_of_worship",
    "name": "嘎龙寺",
    "name:bo": "དགའ་ལུང་དགོན་པ",
    "name:en": "Gawalung Monastery",
    "religion": "buddhist"
  }
},
{
  "type": "node",
  "id": 3057534299,
  "lat": 29.4459313,
  "lon": 89.5372853,
  "tags": {
    "alt_name": "曼日寺;Menri;སམན་ར",
    "amenity": "place_of_worship",
    "denomination": "bon",
    "name": "དམན་རི་དགོན། (梅日寺)",
    "name:bo": "དམན་རི་དགོན།",
    "name:de": "Menri-Kloster",
    "name:en": "Menri Monastery",
    "name:zh": "梅日寺",
    "religion": "buddhist",
    "wikidata": "Q1920706",
    "wikipedia": "en:Menri Monastery"
  }
},
{
  "type": "node",
  "id": 3068108356,
  "lat": 28.7332077,
  "lon": 86.6148853,
  "tags": {
    "amenity": "place_of_worship",
    "name": "加曲莫寺",
    "religion": "buddhist"
  }
},
{
  "type": "node",
  "id": 3079684695,
  "lat": 27.2096204,
  "lon": 78.0529071,
  "tags": {
    "amenity": "place_of_worship",
    "name": "Buddha Mandir",
    "religion": "buddhist"
  }
},
{
  "type": "node",
  "id": 3089124569,
  "lat": 29.1601871,
  "lon": 92.5655731,
  "tags": {
    "amenity": "place_of_worship",
    "denomination": "tibetan",
    "note": "on wikmapia called Baiding Gunba",
    "religion": "buddhist"
  }
},
{
  "type": "node",
  "id": 3089312379,
  "lat": 29.1237152,
  "lon": 92.8070621,
  "tags": {
    "alt_name": "Dakla Gampo;岗布寺;རི་བོ་ཤཱན་ཏི",
    "amenity": "place_of_worship",
    "denomination": "tibetan",
    "int_name": "Daglha Gampo",
    "name": "དྭགས་ལྷ་སྒམ་པོ (达拉岗布寺)",
    "name:bo": "དྭགས་ལྷ་སྒམ་པོ",
    "name:en": "Daklha Gampo",
    "name:zh": "达拉岗布寺",
    "religion": "buddhist",
    "wikidata": "Q1091189",
    "wikipedia": "zh:达拉岗布寺"
  }
},
{
  "type": "node",
  "id": 3093458993,
  "lat": 29.3003939,
  "lon": 91.9721407,
  "tags": {
    "alt_name": "丹萨提寺;丹萨梯寺",
    "alt_name:bo": "གདན་ས་ཐེལ;ཕག་གྲུ་གདན་ས་ཐེལ;ངོམ་ཤོད་ཕག་མོ་གྲུ་པའི་གདན་ས་ཐེལ",
    "amenity": "place_of_worship",
    "denomination": "tibetan",
    "name": "丹萨替寺 གདན་ས་མཐིལ",
    "name:bn": "গ্দান-সা-থেল",
    "name:bo": "གདན་ས་མཐིལ",
    "name:de": "Densa Thil",
    "name:en": "Densatil Monastery",
    "name:fr": "Monastère de Densatil",
    "name:nl": "Densatil",
    "name:zh": "丹萨替寺",
    "name:zh-Latn-pinyin": "dānsàtí sì",
    "religion": "buddhist",
    "school": "kagyu",
    "website": "http://www.densatil.org/",
    "wikidata": "Q1189772",
    "wikipedia": "zh:丹萨替寺"
  }
},
{
  "type": "node",
  "id": 3093458994,
  "lat": 29.2656946,
  "lon": 92.0316117,
  "tags": {
    "alt_name": "卡麻当寺;桑日卡玛寺;Zangri Khangmar;ངོམ་ཤོད་ཟངས་རི་མཁར་དམར་གྱི་ཕུག",
    "amenity": "place_of_worship",
    "denomination": "tibetan",
    "name": "卡玛当寺 ཟངས་རི་མཁར་དམར",
    "name:bo": "ཟངས་རི་མཁར་དམར",
    "name:de": "Sangri Kharmar",
    "name:en": "Zangri Kangmar",
    "name:zh": "卡玛当寺",
    "note": "TBRC names it \"meditation cave\"",
    "religion": "buddhist",
    "wikidata": "Q2221706",
    "wikipedia": "de:Sangri Kharmar"
  }
},
{
  "type": "node",
  "id": 3095071781,
  "lat": 27.7156386,
  "lon": 85.3125554,
  "tags": {
    "amenity": "place_of_worship",
    "name": "Mahakala Temple",
    "name:en": "Mahakala Temple",
    "name:ne": "महाकाला मन्दिर",
    "religion": "buddhist"
  }
},
{
  "type": "node",
  "id": 3095306215,
  "lat": 28.5173026,
  "lon": 92.2530656,
  "tags": {
    "amenity": "place_of_worship",
    "name": "卡当寺",
    "religion": "buddhist"
  }
},
{
  "type": "node",
  "id": 3095315994,
  "lat": 28.6143227,
  "lon": 92.5392991,
  "tags": {
    "amenity": "place_of_worship",
    "denomination": "tibetan",
    "religion": "buddhist"
  }
},
{
  "type": "node",
  "id": 3096840031,
  "lat": 26.0077695,
  "lon": 89.2827451,
  "tags": {
    "amenity": "place_of_worship",
    "religion": "buddhist"
  }
},
{
  "type": "node",
  "id": 3096840790,
  "lat": 28.5367794,
  "lon": 92.8848904,
  "tags": {
    "alt_name:en": "Sangak Chöling;Sanga Chöling",
    "amenity": "place_of_worship",
    "denomination": "tibetan",
    "name": "三安曲林寺",
    "name:en": "Sangnag Choling temple",
    "name:zh": "三安曲林寺",
    "name:zh-Latn-pinyin": "Sān ān qū línsì",
    "religion": "buddhist"
  }
},
{
  "type": "node",
  "id": 3102500874,
  "lat": 27.1832969,
  "lon": 78.0009939,
  "tags": {
    "amenity": "place_of_worship",
    "name": "Durga mandir",
    "religion": "buddhist"
  }
},
{
  "type": "node",
  "id": 3102517059,
  "lat": 27.1895729,
  "lon": 78.0013000,
  "tags": {
    "amenity": "place_of_worship",
    "name": "sai baba mandir",
    "religion": "buddhist"
  }
},
{
  "type": "node",
  "id": 3102664540,
  "lat": 27.2036186,
  "lon": 78.0173447,
  "tags": {
    "amenity": "place_of_worship",
    "name": "kela devi mandir",
    "religion": "buddhist"
  }
},
{
  "type": "node",
  "id": 3122761129,
  "lat": 28.2872171,
  "lon": 84.3027633,
  "tags": {
    "amenity": "place_of_worship",
    "name": "Sahamba Chneling Monarch",
    "religion": "buddhist"
  }
},
{
  "type": "node",
  "id": 3122761133,
  "lat": 28.2792075,
  "lon": 84.3081347,
  "tags": {
    "amenity": "place_of_worship",
    "name": "Shree Uttarkanya Kumari Devi Mandir",
    "religion": "buddhist"
  }
},
{
  "type": "node",
  "id": 3122761224,
  "lat": 28.2800080,
  "lon": 84.3075434,
  "tags": {
    "amenity": "place_of_worship",
    "religion": "buddhist"
  }
},
{
  "type": "node",
  "id": 3127656715,
  "lat": 27.6441045,
  "lon": 85.3606137,
  "tags": {
    "amenity": "place_of_worship",
    "name": "Shri Siddhimangal Buddha Bihar",
    "religion": "buddhist"
  }
},
{
  "type": "node",
  "id": 3130689200,
  "lat": 27.6464292,
  "lon": 85.3568826,
  "tags": {
    "amenity": "place_of_worship",
    "religion": "buddhist"
  }
},
{
  "type": "node",
  "id": 3135088152,
  "lat": 27.5041058,
  "lon": 90.7491986,
  "tags": {
    "amenity": "place_of_worship",
    "name": "Prakhar Tsechu",
    "religion": "buddhist"
  }
},
{
  "type": "node",
  "id": 3135091119,
  "lat": 27.6106259,
  "lon": 90.7116536,
  "tags": {
    "amenity": "place_of_worship",
    "name": "Thangbi Lhakhang",
    "religion": "buddhist"
  }
},
{
  "type": "node",
  "id": 3141411156,
  "lat": 29.0533795,
  "lon": 92.9833512,
  "tags": {
    "alt_name": "Ba'erqude Si巴尔寺;Ba'er Si;甘丹绕登寺",
    "amenity": "place_of_worship",
    "denomination": "tibetan",
    "name": "巴尔曲德寺",
    "name:en": "Bagrim Chöde Gompa",
    "name:zh": "巴尔曲德寺",
    "name:zh-Latn-pinyin": "bāěr sì;gāndānràodēng sì",
    "note": "http://www.tbrc.org/?locale=en&both=yes#!rid=G1KR1898",
    "religion": "buddhist",
    "school": "gelug",
    "wikidata": "Q108039525"
  }
},
{
  "type": "node",
  "id": 3155760197,
  "lat": 32.3318374,
  "lon": 78.0115806,
  "tags": {
    "amenity": "place_of_worship",
    "religion": "buddhist"
  }
},
{
  "type": "node",
  "id": 3166301764,
  "lat": 30.1535951,
  "lon": 92.1667937,
  "tags": {
    "alt_name": "Dêrzhom Züngoin;Terdrom;德仲尼寺;Dezhong Nisi;Dezhong si",
    "alt_name:bo": "གཏེར་སྒྲོམ་བཙུན་དགོན",
    "amenity": "place_of_worship",
    "name": "གཏེར་སྒྲོམ 德仲寺",
    "name:bo": "གཏེར་སྒྲོམ",
    "name:en": "Dêrzhom",
    "name:zh": "德仲寺",
    "religion": "buddhist",
    "school": "nyingma;drikung kagyu",
    "wikidata": "Q108039219"
  }
},
{
  "type": "node",
  "id": 3166301766,
  "lat": 30.1065832,
  "lon": 92.2039222,
  "tags": {
    "alt_name": "འབྲི་གུང་མཐིལ་དགོན་པ;མཐིལ་དགོན་པ",
    "amenity": "place_of_worship",
    "name": "འབྲི་གུང་དགོན། (直贡梯寺)",
    "name:bo": "འབྲི་གུང་དགོན།",
    "name:de": "Drigung Thil",
    "name:en": "Drigung Monastery",
    "name:zh": "直贡梯寺",
    "religion": "buddhist",
    "wikidata": "Q1259005",
    "wikipedia": "zh:直贡梯寺"
  }
},
{
  "type": "node",
  "id": 3166491004,
  "lat": 29.3742321,
  "lon": 91.5485326,
  "tags": {
    "amenity": "place_of_worship",
    "denomination": "tibetan",
    "name": "青朴",
    "note": "on wikmapia called Wentsa Naru Ani Gompa",
    "religion": "buddhist"
  }
},
{
  "type": "node",
  "id": 3170169877,
  "lat": 30.1808050,
  "lon": 91.2201810,
  "tags": {
    "amenity": "place_of_worship",
    "name": "直布龙寺",
    "religion": "buddhist"
  }
},
{
  "type": "node",
  "id": 3170170387,
  "lat": 30.1558648,
  "lon": 91.2215120,
  "tags": {
    "alt_name": "达隆寺;Taklung Gonchen;བྱང་སྟག་ལུང;སྟག་ལུང་ཡ་ཐང;བྱང་སྟག་ལུང་ཆོས་གྲྭ",
    "amenity": "place_of_worship",
    "name": "སྟག་ལུང་དགོན་ཆེན (达龙寺)",
    "name:bo": "སྟག་ལུང་དགོན་ཆེན",
    "name:de": "Taglung-Kloster",
    "name:en": "Taklung Monastery",
    "name:ja": "タクルン寺",
    "name:zh": "达龙寺",
    "name:zh-Latn-pinyin": "dálóng sì",
    "religion": "buddhist",
    "wikidata": "Q2388149",
    "wikipedia": "zh:达隆寺"
  }
},
{
  "type": "node",
  "id": 3171599506,
  "lat": 31.6621722,
  "lon": 98.3808322,
  "tags": {
    "amenity": "place_of_worship",
    "name": "德钦日追",
    "note": "on wikimapia called Deshye Rushö",
    "religion": "buddhist"
  }
},
{
  "type": "node",
  "id": 3171736486,
  "lat": 32.4917009,
  "lon": 97.8179740,
  "tags": {
    "alt_name": "Shaga;Sakar",
    "amenity": "place_of_worship",
    "name": "沙嘎",
    "name:bo": "ས་དཀར",
    "name:en": "Sagar",
    "name:zh": "沙嘎村",
    "name:zh-Latn-pinyin": "shāgá sì",
    "place": "village",
    "religion": "buddhist",
    "wikidata": "Q14288988"
  }
},
{
  "type": "node",
  "id": 3171736487,
  "lat": 32.4925410,
  "lon": 97.8061808,
  "tags": {
    "alt_name": "本青寺;běnqīng sì;Shaga Si;萨嘎贡巴;Sagagongba",
    "amenity": "place_of_worship",
    "name": "沙嘎寺",
    "name:en": "Shaga Monastery",
    "name:zh": "沙嘎寺",
    "name:zh-Latn-pinyin": "shāgá sì",
    "religion": "buddhist",
    "school": "kagyu",
    "wikidata": "Q108038896"
  }
},
{
  "type": "node",
  "id": 3171769133,
  "lat": 32.8877702,
  "lon": 97.0669307,
  "tags": {
    "alt_name": "New Thrangu Gompa;Thrangu Gompa",
    "alt_name:bo": "རྣམ་པར་སྣང་མཛད་གཙུག་ལག་ཁང་།",
    "amenity": "place_of_worship",
    "denomination": "tibetan",
    "name": "རྒྱ་བཟའ་ཀོང་ཇོ་མཆོད་ཁང་།",
    "name:bo": "རྒྱ་བཟའ་ཀོང་ཇོ་མཆོད་ཁང་།",
    "name:en": "Thrangu Monastery",
    "religion": "buddhist"
  }
},
{
  "type": "node",
  "id": 3171962788,
  "lat": 32.1405232,
  "lon": 97.5231331,
  "tags": {
    "alt_name": "Xiongtuo Si",
    "amenity": "place_of_worship",
    "denomination": "tibetan",
    "name": "雄拖寺",
    "name:en": "Xiongtuo monastery",
    "name:zh": "雄拖寺",
    "religion": "buddhist"
  }
},
{
  "type": "node",
  "id": 3171966878,
  "lat": 32.0030395,
  "lon": 97.5667353,
  "tags": {
    "alt_name": "Sibda Dzogchen Gompa",
    "amenity": "place_of_worship",
    "denomination": "tibetan",
    "name": "卓金寺",
    "name:en": "Zhuojin Si",
    "name:zh": "卓金寺",
    "religion": "buddhist"
  }
},
{
  "type": "node",
  "id": 3171971644,
  "lat": 31.9241217,
  "lon": 98.0096447,
  "tags": {
    "amenity": "place_of_worship",
    "denomination": "tibetan",
    "name": "德登寺",
    "name:en": "Dedeng Si",
    "name:zh": "德登寺",
    "religion": "buddhist"
  }
},
{
  "type": "node",
  "id": 3171976705,
  "lat": 31.7483624,
  "lon": 97.9265934,
  "tags": {
    "alt_name": "朝日寺;Chaori si",
    "amenity": "place_of_worship",
    "denomination": "tibetan",
    "name": "超日寺",
    "name:en": "Chaori monastery",
    "name:zh": "超日寺",
    "note": "on wikimapia called Troru Gompa",
    "religion": "buddhist",
    "school": "kagyu",
    "source": "esriWorld",
    "wikidata": "Q108031232"
  }
},
{
  "type": "node",
  "id": 3171986975,
  "lat": 31.6126527,
  "lon": 97.9876694,
  "tags": {
    "alt_name": "Ziga si;Dzigar Chogar;Dzigar Gompa",
    "amenity": "place_of_worship",
    "name": "འཛི་སྒར་ཆོས་སྒར 字呷寺",
    "name:bo": "འཛི་སྒར་ཆོས་སྒར",
    "name:en": "Zigar monastery",
    "name:zh": "字呷寺",
    "religion": "buddhist",
    "school": "drukpa kagyu",
    "wikidata": "Q108036517"
  }
},
{
  "type": "node",
  "id": 3171994522,
  "lat": 31.3518206,
  "lon": 98.1354954,
  "tags": {
    "amenity": "place_of_worship",
    "name": "车所寺",
    "name:en": "Chesuo si",
    "note": "on wikimapia called Threlso Gompa / Tritsho Gön",
    "religion": "buddhist",
    "school": "sakya",
    "wikidata": "Q108031637"
  }
},
{
  "type": "node",
  "id": 3172045062,
  "lat": 27.7429756,
  "lon": 85.3634734,
  "tags": {
    "amenity": "place_of_worship",
    "check_date": "2025-07-22",
    "name": "महान स्तूपा",
    "name:en": "Great Stupa",
    "name:ne": "महान स्तूपा",
    "religion": "buddhist"
  }
},
{
  "type": "node",
  "id": 3172045063,
  "lat": 27.7427603,
  "lon": 85.3635475,
  "tags": {
    "amenity": "place_of_worship",
    "check_date": "2025-07-29",
    "name": "नयाँ स्तूपा",
    "name:en": "New Stupa",
    "name:ne": "नयाँ स्तूपा",
    "religion": "buddhist"
  }
},
{
  "type": "node",
  "id": 3172145575,
  "lat": 27.7423337,
  "lon": 85.3643268,
  "tags": {
    "amenity": "place_of_worship",
    "check_date": "2025-07-29",
    "name": "सानो स्तूपा",
    "name:en": "Small Stupas",
    "name:ne": "सानो स्तूपा",
    "religion": "buddhist"
  }
},
{
  "type": "node",
  "id": 3174995761,
  "lat": 31.6307258,
  "lon": 98.5845089,
  "tags": {
    "amenity": "place_of_worship",
    "denomination": "tibetan",
    "name": "然丹寺",
    "religion": "buddhist"
  }
},
{
  "type": "node",
  "id": 3176869188,
  "lat": 31.1597894,
  "lon": 98.3833326,
  "tags": {
    "alt_name": "格普寺;Genpu si;Gepu si",
    "amenity": "place_of_worship",
    "denomination": "tibetan",
    "name": "根普寺",
    "name:en": "Genpu monastery",
    "name:zh": "根普寺",
    "religion": "buddhist",
    "school": "sakya",
    "wikidata": "Q108036864"
  }
},
{
  "type": "node",
  "id": 3178562075,
  "lat": 31.2312327,
  "lon": 97.8955880,
  "tags": {
    "alt_name": "向日哈加寺",
    "amenity": "place_of_worship",
    "name": "哈加寺",
    "name:en": "Hajia si",
    "name:zh": "哈加寺",
    "religion": "buddhist",
    "wikidata": "Q108036834"
  }
},
{
  "type": "node",
  "id": 3178562079,
  "lat": 31.2395095,
  "lon": 97.5797587,
  "tags": {
    "alt_name": "珠古寺;Zhugu si;Drugu Gön;Drugu Gompa",
    "alt_name:bo": "ཐོ་གྲུ་གུ་དགོན།",
    "amenity": "place_of_worship",
    "denomination": "tibetan",
    "name": "གྲུ་གུ་དགོན། 珠谷寺",
    "name:bo": "གྲུ་གུ་དགོན།",
    "name:en": "Chugu Gompa",
    "name:zh": "珠谷寺",
    "name:zh-Latn-pinyin": "zhūgōng sì",
    "religion": "buddhist",
    "wikidata": "Q108036184"
  }
},
{
  "type": "node",
  "id": 3178562884,
  "lat": 31.2497648,
  "lon": 97.5556301,
  "tags": {
    "alt_name": "Teka Gompa;Surde si",
    "alt_name:zh": "索德寺",
    "amenity": "place_of_worship",
    "denomination": "tibetan",
    "name": "斯德日追",
    "name:en": "Söda Gompa",
    "name:zh": "斯德日追",
    "religion": "buddhist"
  }
},
{
  "type": "node",
  "id": 3180231173,
  "lat": 31.5598767,
  "lon": 97.4302710,
  "tags": {
    "alt_name": "嘎莱寺;Galai si",
    "amenity": "place_of_worship",
    "denomination": "tibetan",
    "name": "嘎来寺",
    "name:en": "Galai Monastery",
    "name:zh": "嘎来寺",
    "name:zh-Latn-pinyin": "gálái sì",
    "religion": "buddhist",
    "wikidata": "Q108036375"
  }
},
{
  "type": "node",
  "id": 3180231174,
  "lat": 31.5949927,
  "lon": 97.3963563,
  "tags": {
    "alt_name": "Zuozi si;左宗寺;Zuozong si;Dzodzi Gompa;卓子寺",
    "alt_name:bo": "ལྷ་ཐོག་མཛོ་རྫི་དགོན།",
    "amenity": "place_of_worship",
    "denomination": "tibetan",
    "name": "མཛོ་རྫི་དགོན 佐孜寺",
    "name:bo": "མཛོ་རྫི་དགོན",
    "name:en": "Zuozi monastery",
    "name:zh": "佐孜寺",
    "religion": "buddhist",
    "school": "kagyu",
    "source": "esriWorld",
    "wikidata": "Q108039168"
  }
},
{
  "type": "node",
  "id": 3180231175,
  "lat": 31.4345917,
  "lon": 97.5436861,
  "tags": {
    "alt_name": "Khampagar Gompa;Kangba si",
    "amenity": "place_of_worship",
    "name": "ཁམས་པ་སྒར 康巴寺",
    "name:bo": "ཁམས་པ་སྒར",
    "name:en": "Kangba Monastery",
    "name:zh": "康巴寺",
    "religion": "buddhist",
    "wikidata": "Q108033407"
  }
},
{
  "type": "node",
  "id": 3180243202,
  "lat": 32.0678741,
  "lon": 97.3870579,
  "tags": {
    "alt_name": "Lengda Si",
    "amenity": "place_of_worship",
    "name": "冷达寺",
    "name:en": "Lengda Monastery",
    "name:zh": "冷达寺",
    "religion": "buddhist"
  }
},
{
  "type": "node",
  "id": 3180245947,
  "lat": 32.0621080,
  "lon": 97.2488308,
  "tags": {
    "amenity": "place_of_worship",
    "note": "on wikimapia called Jhapa Gompa / Buya'er Si",
    "religion": "buddhist"
  }
},
{
  "type": "node",
  "id": 3180245961,
  "lat": 32.1680928,
  "lon": 97.2767075,
  "tags": {
    "amenity": "place_of_worship",
    "denomination": "tibetan",
    "religion": "buddhist"
  }
},
{
  "type": "node",
  "id": 3180259852,
  "lat": 32.0377162,
  "lon": 96.9981971,
  "tags": {
    "amenity": "place_of_worship",
    "name": "代登寺",
    "name:en": "Daideng Si",
    "name:zh": "代登寺",
    "religion": "buddhist"
  }
},
{
  "type": "node",
  "id": 3180273911,
  "lat": 31.8539615,
  "lon": 97.0129614,
  "tags": {
    "alt_name": "Jintong si;Tsenyi Gompa;Jentun Gompa",
    "amenity": "place_of_worship",
    "denomination": "tibetan",
    "name": "金通寺",
    "name:en": "Jintong monastery",
    "name:zh": "金通寺",
    "religion": "buddhist"
  }
},
{
  "type": "node",
  "id": 3180342163,
  "lat": 31.4571361,
  "lon": 97.1724125,
  "tags": {
    "alt_name": "Xiangda si",
    "amenity": "place_of_worship",
    "name": "向达寺",
    "name:en": "Shangda Gompa",
    "name:zh": "向达寺",
    "religion": "buddhist"
  }
},
{
  "type": "node",
  "id": 3180342164,
  "lat": 31.7237888,
  "lon": 96.9936603,
  "tags": {
    "alt_name": "Ladeng monastery;Lading si;Ladeng si",
    "amenity": "place_of_worship",
    "denomination": "tibetan",
    "name": "拉登寺",
    "name:en": "Lading monastery",
    "name:zh": "拉登寺",
    "religion": "buddhist",
    "wikidata": "Q108032342"
  }
},
{
  "type": "node",
  "id": 3180345263,
  "lat": 31.8079399,
  "lon": 97.0836416,
  "tags": {
    "amenity": "place_of_worship",
    "religion": "buddhist"
  }
},
{
  "type": "node",
  "id": 3180435417,
  "lat": 31.4096884,
  "lon": 96.8612907,
  "tags": {
    "alt_name": "Shagong si",
    "amenity": "place_of_worship",
    "name": "沙贡寺",
    "name:en": "Sagang Monastery",
    "name:zh": "沙贡寺",
    "religion": "buddhist",
    "school": "gelug",
    "wikidata": "Q108035787"
  }
},
{
  "type": "node",
  "id": 3182483855,
  "lat": 29.0995422,
  "lon": 87.9422892,
  "tags": {
    "amenity": "place_of_worship",
    "name": "增寺",
    "religion": "buddhist"
  }
},
{
  "type": "node",
  "id": 3182483856,
  "lat": 29.1597388,
  "lon": 87.6873257,
  "tags": {
    "alt_name": "དགའ་ལྡན་འོད་གསལ་གླིང;དགའ་ལྡན་ཆོས་གླིང;དགའ་ལྡན་འོག་མིན་གླིང",
    "amenity": "place_of_worship",
    "denomination": "tibetan",
    "name": "ལྷ་རྩེ་དགའ་ལྡན་ཆོས་གླིང (拉孜寺)",
    "name:bo": "ལྷ་རྩེ་དགའ་ལྡན་ཆོས་གླིང",
    "name:zh": "拉孜寺",
    "religion": "buddhist"
  }
},
{
  "type": "node",
  "id": 3182483858,
  "lat": 29.0332082,
  "lon": 87.6649776,
  "tags": {
    "amenity": "place_of_worship",
    "name": "桑珠归寺",
    "religion": "buddhist"
  }
},
{
  "type": "node",
  "id": 3182487244,
  "lat": 28.9974474,
  "lon": 87.6503150,
  "tags": {
    "amenity": "place_of_worship",
    "name": "贡达下寺",
    "religion": "buddhist"
  }
},
{
  "type": "node",
  "id": 3183009411,
  "lat": 29.4316011,
  "lon": 87.7561693,
  "tags": {
    "amenity": "place_of_worship",
    "name": "仁青丁寺",
    "religion": "buddhist"
  }
},
{
  "type": "node",
  "id": 3183009413,
  "lat": 29.4881700,
  "lon": 87.8547754,
  "tags": {
    "amenity": "place_of_worship",
    "name": "曲龙寺",
    "religion": "buddhist"
  }
},
{
  "type": "node",
  "id": 3184018225,
  "lat": 27.5177754,
  "lon": 88.9635406,
  "tags": {
    "amenity": "place_of_worship",
    "name": "东嘎寺",
    "name:en": "Dungkar monastery",
    "name:zh-Latn-pinyin": "Dōng gā sì",
    "religion": "buddhist",
    "wikidata": "Q2749114",
    "wikipedia": "zh:东嘎寺"
  }
},
{
  "type": "node",
  "id": 3189836030,
  "lat": 32.3651569,
  "lon": 97.2379871,
  "tags": {
    "amenity": "place_of_worship",
    "denomination": "tibetan",
    "religion": "buddhist"
  }
},
{
  "type": "node",
  "id": 3190439789,
  "lat": 27.6045400,
  "lon": 86.6998974,
  "tags": {
    "amenity": "place_of_worship",
    "name": "Pemanamding-Monastery",
    "religion": "buddhist"
  }
},
{
  "type": "node",
  "id": 3202673562,
  "lat": 27.6413774,
  "lon": 85.1379997,
  "tags": {
    "amenity": "place_of_worship",
    "religion": "buddhist"
  }
},
{
  "type": "node",
  "id": 3202673563,
  "lat": 27.6632626,
  "lon": 85.1234855,
  "tags": {
    "amenity": "place_of_worship",
    "religion": "buddhist"
  }
},
{
  "type": "node",
  "id": 3202705072,
  "lat": 27.6595820,
  "lon": 85.1252506,
  "tags": {
    "amenity": "place_of_worship",
    "religion": "buddhist"
  }
},
{
  "type": "node",
  "id": 3205090252,
  "lat": 27.4698900,
  "lon": 86.5715828,
  "tags": {
    "amenity": "place_of_worship",
    "name": "Jor Baudha",
    "religion": "buddhist"
  }
},
{
  "type": "node",
  "id": 3205090253,
  "lat": 27.4699934,
  "lon": 86.5716171,
  "tags": {
    "addr:city": "Solukhumbu",
    "addr:housenumber": "Jor Boudhha",
    "addr:street": "Garma",
    "amenity": "place_of_worship",
    "name": "Jor Bouddha Stupa",
    "religion": "buddhist"
  }
},
{
  "type": "node",
  "id": 3205090254,
  "lat": 27.4778303,
  "lon": 86.5777042,
  "tags": {
    "amenity": "place_of_worship",
    "religion": "buddhist"
  }
},
{
  "type": "node",
  "id": 3205834310,
  "lat": 27.6325544,
  "lon": 85.1213154,
  "tags": {
    "amenity": "place_of_worship",
    "name": "Khola Kharkha Palchowk Mane",
    "religion": "buddhist"
  }
},
{
  "type": "node",
  "id": 3205834311,
  "lat": 27.6325558,
  "lon": 85.1213332,
  "tags": {
    "amenity": "place_of_worship",
    "name": "Khola Kharkha Palchowk Mane",
    "religion": "buddhist"
  }
},
{
  "type": "node",
  "id": 3205834312,
  "lat": 27.6325558,
  "lon": 85.1213474,
  "tags": {
    "amenity": "place_of_worship",
    "name": "Khola Kharkha Palchowk Mane",
    "religion": "buddhist"
  }
},
{
  "type": "node",
  "id": 3207719331,
  "lat": 29.0957104,
  "lon": 89.3375260,
  "tags": {
    "alt_name": "阿玛曲莫",
    "amenity": "place_of_worship",
    "name": "བསེ་བྲག་སྒྲུབ་སྡེ (色扎卓德寺)",
    "name:bo": "བསེ་བྲག་སྒྲུབ་སྡེ",
    "name:en": "Sedrak Drubde",
    "name:zh": "色扎卓德寺",
    "religion": "buddhist"
  }
},
{
  "type": "node",
  "id": 3208650590,
  "lat": 28.3795687,
  "lon": 90.7090741,
  "tags": {
    "alt_name": "Lalong Si;Lalong Temple;Lhalung Gompa;Lhalung Gönpa",
    "amenity": "place_of_worship",
    "denomination": "tibetan",
    "heritage": "2",
    "name": "ལྷ་ལུང་དགོན 拉隆寺",
    "name:bo": "ལྷ་ལུང་དགོན",
    "name:de": "Lhalung-Kloster",
    "name:en": "Lhalung Monastery",
    "name:fr": "Monastère de Lhalung",
    "name:zh": "拉隆寺",
    "ref": "7-1399",
    "ref:heritage:CN": "7-1399-3-697",
    "religion": "buddhist",
    "school": "kagyu,nyingma",
    "source": "esriWorld",
    "wikidata": "Q1822475",
    "wikipedia": "zh:拉隆寺"
  }
},
{
  "type": "node",
  "id": 3216889348,
  "lat": 30.0866696,
  "lon": 98.7240806,
  "tags": {
    "alt_name": "吉色寺",
    "amenity": "place_of_worship",
    "name": "吉色寺",
    "name:en": "Jise si",
    "name:zh": "吉色寺",
    "note": "on wikimapia called Gyise Gompa",
    "religion": "buddhist",
    "school": "nyingma",
    "wikidata": "Q108039327"
  }
},
{
  "type": "node",
  "id": 3223580656,
  "lat": 29.6534718,
  "lon": 91.1127568,
  "tags": {
    "amenity": "place_of_worship",
    "name": "鲁普岩寺",
    "religion": "buddhist"
  }
},
{
  "type": "node",
  "id": 3246042204,
  "lat": 31.9794107,
  "lon": 85.0224299,
  "tags": {
    "alt_name:zh": "罗波拉康",
    "amenity": "place_of_worship",
    "name": "罗布拉康",
    "religion": "buddhist"
  }
},
{
  "type": "node",
  "id": 3253009242,
  "lat": 30.6305966,
  "lon": 92.6536138,
  "tags": {
    "amenity": "place_of_worship",
    "religion": "buddhist"
  }
},
{
  "type": "node",
  "id": 3280975189,
  "lat": 31.9542544,
  "lon": 95.7579197,
  "tags": {
    "amenity": "place_of_worship",
    "denomination": "tibetan",
    "name:bo": "རྟ་རྣ་སེང་གེའི་གནམ་རྫོང་",
    "name:en": "Tana Gompa",
    "name:zh": "达那寺",
    "name:zh-Latn-pinyin": "dánǎ sì",
    "religion": "buddhist",
    "wikidata": "Q2391978",
    "wikipedia": "de:Tana Gompa"
  }
},
{
  "type": "node",
  "id": 3296174419,
  "lat": 27.6733072,
  "lon": 85.2760227,
  "tags": {
    "amenity": "place_of_worship",
    "name": "बुद्ध चैत्य",
    "name:en": "Buddha chaitya",
    "name:ne": "बुद्ध चैत्य",
    "religion": "buddhist"
  }
},
{
  "type": "node",
  "id": 3298487380,
  "lat": 31.3125300,
  "lon": 98.9416362,
  "tags": {
    "alt_name": "Katog;Katok;Gatog;Katog Gompa;Kathog Gompa;Kathok",
    "alt_name:bo": "ཀ༔་ཐོག་དགོན།",
    "alt_name:zh": "噶陀寺;嘎陀寺;嘎多寺;噶妥寺;嘎拖寺",
    "amenity": "place_of_worship",
    "denomination": "tibetan",
    "name": "ཀ༔་ཐོག་དགོན། 噶陀寺",
    "name:bo": "ཀ་ཐོག་དགོན།",
    "name:de": "Kathog-Kloster",
    "name:en": "Kathog Monastery",
    "name:fr": "Kathok",
    "name:hu": "Katok kolostor",
    "name:my": "ကတော့ကျောင်းတော်",
    "name:nl": "Kathog",
    "name:no": "Kathok-klosteret",
    "name:ru": "Катог",
    "name:zh": "噶陀寺",
    "name:zh-Latn-pinyin": "gátuō sì",
    "religion": "buddhist",
    "wikidata": "Q1430204",
    "wikipedia": "en:Kathok Monastery"
  }
},
{
  "type": "node",
  "id": 3299951149,
  "lat": 32.8446270,
  "lon": 97.1467211,
  "tags": {
    "alt_name": "Penchen-Kloster;Benchen Phüntshog Dargyeling;Benchen",
    "amenity": "place_of_worship",
    "denomination": "tibetan",
    "name": "边钦寺",
    "name:de": "Benchen-Kloster",
    "name:en": "Benchen Monastery",
    "name:ru": "Бенчен, школы Карма Кагью",
    "name:zh": "边钦寺",
    "name:zh-Latn-pinyin": "biānqīn sì",
    "religion": "buddhist",
    "wikidata": "Q816722",
    "wikipedia": "de:Benchen-Kloster"
  }
},
{
  "type": "node",
  "id": 3302455549,
  "lat": 33.0109884,
  "lon": 97.1395836,
  "tags": {
    "alt_name": "Damkhar Gompa",
    "alt_name:bo": "དོམ་དཀར་ལྷུན་གྲུབ་བདེ་ཆེན་ས་དོན་ཆོས་འཁོར་གླིང་།",
    "amenity": "place_of_worship",
    "denomination": "tibetan",
    "name": "དོམ་དཀར་དགོན།",
    "name:bo": "དོམ་དཀར་དགོན།",
    "name:de": "Domkar-Kloster",
    "name:en": "Old Damkhar Gompa",
    "name:zh": "当卡寺",
    "name:zh-Latn-pinyin": "Dāngkǎ Sì",
    "religion": "buddhist",
    "wikidata": "Q11069482",
    "wikipedia": "de:Domkar-Kloster"
  }
},
{
  "type": "node",
  "id": 3302963616,
  "lat": 33.3653853,
  "lon": 97.0042345,
  "tags": {
    "amenity": "place_of_worship",
    "denomination": "tibetan",
    "name": "甘沙贡巴",
    "name:en": "Gansha Monastery",
    "name:zh": "甘沙贡巴",
    "religion": "buddhist",
    "source": "bing"
  }
},
{
  "type": "node",
  "id": 3304157698,
  "lat": 33.0096514,
  "lon": 97.0174019,
  "tags": {
    "alt_name": "Döndrub Ling",
    "alt_name:bo": "སྐྱེ་རྒུ་དོན་འགྲུབ་གླིང་།;Jཡེགུ་ཌོནདྲུབ་Lཨིང་།;སྐྱེ་རྒུ་དགོན་;",
    "amenity": "place_of_worship",
    "denomination": "tibetan",
    "name": "སྐྱེ་རྒུའི་དོན་འགྲུབ་གླིང་། 结古寺",
    "name:bo": "སྐྱེ་རྒུའི་དོན་འགྲུབ་གླིང་།",
    "name:de": "Gyêgu-Kloster",
    "name:en": "Gyêgu Monastery",
    "name:fr": "Monastère de Gyegu",
    "name:zh": "结古寺",
    "name:zh-Latn-pinyin": "jiēgǔ sì",
    "religion": "buddhist",
    "school": "sakya",
    "wikidata": "Q939554",
    "wikipedia": "de:Gyêgu-Kloster"
  }
},
{
  "type": "node",
  "id": 3304267155,
  "lat": 27.6764627,
  "lon": 85.2786572,
  "tags": {
    "amenity": "place_of_worship",
    "historic": "monument",
    "religion": "buddhist"
  }
},
{
  "type": "node",
  "id": 3304267156,
  "lat": 27.6764366,
  "lon": 85.2787403,
  "tags": {
    "amenity": "place_of_worship",
    "historic": "monument",
    "religion": "buddhist"
  }
},
{
  "type": "node",
  "id": 3304282394,
  "lat": 27.6763760,
  "lon": 85.2794015,
  "tags": {
    "amenity": "place_of_worship",
    "historic": "monument",
    "religion": "buddhist"
  }
},
{
  "type": "node",
  "id": 3307527870,
  "lat": 27.6757370,
  "lon": 85.2771088,
  "tags": {
    "amenity": "place_of_worship",
    "religion": "buddhist"
  }
},
{
  "type": "node",
  "id": 3307546658,
  "lat": 27.6780673,
  "lon": 85.2772106,
  "tags": {
    "amenity": "place_of_worship",
    "religion": "buddhist"
  }
},
{
  "type": "node",
  "id": 3307556015,
  "lat": 27.6788443,
  "lon": 85.2774233,
  "tags": {
    "amenity": "place_of_worship",
    "religion": "buddhist"
  }
},
{
  "type": "node",
  "id": 3308093558,
  "lat": 32.5252986,
  "lon": 96.4977502,
  "tags": {
    "alt_name": "Thra Öde Chennyi Ling;当卡乃多寺",
    "amenity": "place_of_worship",
    "denomination": "tibetan",
    "int_name": "Nedo Gompa",
    "name": "乃多寺",
    "name:en": "Nedo Monastery",
    "name:zh": "乃多寺",
    "name:zh-Latn-pinyin": "nǎiduō sì",
    "religion": "buddhist",
    "source": "bing"
  }
},
{
  "type": "node",
  "id": 3309257604,
  "lat": 27.6802283,
  "lon": 85.2743584,
  "tags": {
    "amenity": "place_of_worship",
    "religion": "buddhist"
  }
},
{
  "type": "node",
  "id": 3309269263,
  "lat": 27.6795385,
  "lon": 85.2734560,
  "tags": {
    "amenity": "place_of_worship",
    "religion": "buddhist"
  }
},
{
  "type": "node",
  "id": 3310976977,
  "lat": 31.6436006,
  "lon": 98.9628067,
  "tags": {
    "alt_name": "德格宗萨寺;Dzongsar Gön;རྫོང་གསར་དགོན;རྫོང་སར་བཀྲ་ཤིས་ལྷ་རྩེ;སྡེ་དགེ་རྫོང་སར་དགོན་བཤད་སྒྲུབ་དར་རྒྱས་གླིང",
    "amenity": "place_of_worship",
    "denomination": "tibetan",
    "name": "རྫོང་སར་དགོན 宗萨寺",
    "name:bo": "རྫོང་སར་དགོན",
    "name:de": "Dzongsar-Kloster",
    "name:en": "Dzongsar Monastery",
    "name:fr": "Monastère de Dzongsar",
    "name:zh": "宗萨寺",
    "name:zh-Latn-pinyin": "zōngsà sì",
    "religion": "buddhist",
    "wikidata": "Q833137",
    "wikipedia": "zh:宗萨寺"
  }
},
{
  "type": "node",
  "id": 3310984851,
  "lat": 31.6487003,
  "lon": 98.7957956,
  "tags": {
    "alt_name": "Pelpung;Pelpung Gön;Palpung Gompa;Belpung Monastery;八帮寺;八蚌寺;巴蚌寺;聖教法輪寺;དཔལ་སྤུང་ཆོས་འཁོར་གླིང་།;Pelpung Chökhor Ling",
    "amenity": "place_of_worship",
    "denomination": "tibetan",
    "name": "དཔལ་སྤུངས་དགོན། 八邦寺",
    "name:bo": "དཔལ་སྤུངས་དགོན་པ",
    "name:en": "Palpung Monastery",
    "name:zh": "八邦寺",
    "name:zh-Latn-pinyin": "bābāng sì",
    "religion": "buddhist",
    "school": "Kagyü",
    "wikidata": "Q2068342",
    "wikipedia": "zh:八邦寺"
  }
},
{
  "type": "node",
  "id": 3312025284,
  "lat": 27.6763619,
  "lon": 85.2782290,
  "tags": {
    "amenity": "place_of_worship",
    "name": "करुणाकर विहार (केवीई बाहा)",
    "name:en": "Karunakar Vihar (Kwe Baha)",
    "name:ne": "करुणाकर विहार (केवीई बाहा)",
    "religion": "buddhist"
  }
},
{
  "type": "node",
  "id": 3312087833,
  "lat": 27.6784122,
  "lon": 85.2767142,
  "tags": {
    "amenity": "place_of_worship",
    "religion": "buddhist"
  }
},
{
  "type": "node",
  "id": 3312719315,
  "lat": 32.3544306,
  "lon": 97.1771055,
  "tags": {
    "alt_name": "Surmang Dütsi Thil;Dudtsi Til Monastery;Zurmang;Sumang",
    "alt_name:bo": "ཟུར་མང་བདུད་རྩི་མཐིལ་དགོན་པ;ཟུར་མང་བདུད་རྩི་དིལ;བདུད་རྩི་མཐིལ་དགོན་པ;སྨར་ཁམས་བདུད་རྩི་མཐིལ",
    "alt_name:zh": "苏莽德子堤寺",
    "amenity": "place_of_worship",
    "denomination": "tibetan",
    "name": "ཟུར་མང་དགོན་པ",
    "name:bo": "ཟུར་མང་དགོན་པ",
    "name:en": "Dutsi-til Monastery",
    "name:zh": "苏莽寺",
    "name:zh-Latn-pinyin": "sūmǎng sì",
    "religion": "buddhist"
  }
},
{
  "type": "node",
  "id": 3312721165,
  "lat": 32.3558178,
  "lon": 97.1746950,
  "tags": {
    "amenity": "place_of_worship",
    "denomination": "tibetan",
    "place_of_worship:type": "prayer_flags",
    "religion": "buddhist"
  }
},
{
  "type": "node",
  "id": 3312721273,
  "lat": 32.3580798,
  "lon": 97.1839745,
  "tags": {
    "amenity": "place_of_worship",
    "denomination": "tibetan",
    "place_of_worship:type": "prayer_flags",
    "religion": "buddhist"
  }
},
{
  "type": "node",
  "id": 3312721628,
  "lat": 32.3681079,
  "lon": 97.1846765,
  "tags": {
    "amenity": "place_of_worship",
    "denomination": "tibetan",
    "religion": "buddhist"
  }
},
{
  "type": "node",
  "id": 3313928616,
  "lat": 32.2926559,
  "lon": 96.9133497,
  "tags": {
    "amenity": "place_of_worship",
    "denomination": "tibetan",
    "religion": "buddhist"
  }
},
{
  "type": "node",
  "id": 3313928632,
  "lat": 32.2928916,
  "lon": 96.9123451,
  "tags": {
    "amenity": "place_of_worship",
    "denomination": "tibetan",
    "place_of_worship:type": "prayer_flags",
    "religion": "buddhist"
  }
},
{
  "type": "node",
  "id": 3313928651,
  "lat": 32.2933423,
  "lon": 96.9124313,
  "tags": {
    "amenity": "place_of_worship",
    "denomination": "tibetan",
    "place_of_worship:type": "prayer_flags",
    "religion": "buddhist"
  }
},
{
  "type": "node",
  "id": 3313929922,
  "lat": 32.3031182,
  "lon": 97.1010890,
  "tags": {
    "amenity": "place_of_worship",
    "denomination": "tibetan",
    "place_of_worship:type": "prayer_flags",
    "religion": "buddhist"
  }
},
{
  "type": "node",
  "id": 3314208692,
  "lat": 32.2287832,
  "lon": 96.8664447,
  "tags": {
    "amenity": "place_of_worship",
    "denomination": "tibetan",
    "religion": "buddhist"
  }
},
{
  "type": "node",
  "id": 3314210372,
  "lat": 32.3296044,
  "lon": 97.0299984,
  "tags": {
    "amenity": "place_of_worship",
    "denomination": "tibetan",
    "place_of_worship:type": "prayer_flags",
    "religion": "buddhist"
  }
},
{
  "type": "node",
  "id": 3314210439,
  "lat": 32.3325753,
  "lon": 97.0336151,
  "tags": {
    "amenity": "place_of_worship",
    "denomination": "tibetan",
    "religion": "buddhist"
  }
},
{
  "type": "node",
  "id": 3314246583,
  "lat": 32.1996193,
  "lon": 96.4302169,
  "tags": {
    "amenity": "place_of_worship",
    "denomination": "tibetan",
    "religion": "buddhist",
    "source": "bing"
  }
},
{
  "type": "node",
  "id": 3314246592,
  "lat": 32.2002224,
  "lon": 96.4318028,
  "tags": {
    "amenity": "place_of_worship",
    "denomination": "tibetan",
    "name": "巴麦寺",
    "religion": "buddhist",
    "source": "bing"
  }
},
{
  "type": "node",
  "id": 3314246640,
  "lat": 32.2026583,
  "lon": 96.4764027,
  "tags": {
    "amenity": "place_of_worship",
    "denomination": "tibetan",
    "religion": "buddhist",
    "source": "bing"
  }
},
{
  "type": "node",
  "id": 3314246836,
  "lat": 32.2307620,
  "lon": 96.8663540,
  "tags": {
    "amenity": "place_of_worship",
    "denomination": "tibetan",
    "place_of_worship:type": "prayer_flags",
    "religion": "buddhist"
  }
},
{
  "type": "node",
  "id": 3314246988,
  "lat": 32.2103092,
  "lon": 96.4740831,
  "tags": {
    "amenity": "place_of_worship",
    "denomination": "tibetan",
    "religion": "buddhist",
    "source": "bing"
  }
},
{
  "type": "node",
  "id": 3314407001,
  "lat": 27.6793227,
  "lon": 85.2754320,
  "tags": {
    "amenity": "place_of_worship",
    "religion": "buddhist"
  }
},
{
  "type": "node",
  "id": 3314430261,
  "lat": 27.6792360,
  "lon": 85.2753783,
  "tags": {
    "amenity": "place_of_worship",
    "religion": "buddhist"
  }
},
{
  "type": "node",
  "id": 3314453953,
  "lat": 31.8914148,
  "lon": 96.1221927,
  "tags": {
    "amenity": "place_of_worship",
    "denomination": "tibetan",
    "place_of_worship:type": "prayer_flags",
    "religion": "buddhist"
  }
},
{
  "type": "node",
  "id": 3314454377,
  "lat": 31.8991949,
  "lon": 96.1197628,
  "tags": {
    "amenity": "place_of_worship",
    "denomination": "tibetan",
    "name:zh": "扎纳寺",
    "religion": "buddhist"
  }
},
{
  "type": "node",
  "id": 3314454409,
  "lat": 31.9022443,
  "lon": 96.1264593,
  "tags": {
    "amenity": "place_of_worship",
    "denomination": "tibetan",
    "place_of_worship:type": "prayer_flags",
    "religion": "buddhist"
  }
},
{
  "type": "node",
  "id": 3314454642,
  "lat": 32.3099540,
  "lon": 95.5831008,
  "tags": {
    "amenity": "place_of_worship",
    "denomination": "tibetan",
    "place_of_worship:type": "prayer_flags",
    "religion": "buddhist"
  }
},
{
  "type": "node",
  "id": 3314454658,
  "lat": 32.3116311,
  "lon": 95.5843027,
  "tags": {
    "amenity": "place_of_worship",
    "denomination": "tibetan",
    "name:zh": "巴色寺",
    "religion": "buddhist"
  }
},
{
  "type": "node",
  "id": 3314455091,
  "lat": 32.7015453,
  "lon": 95.0248595,
  "tags": {
    "amenity": "place_of_worship",
    "denomination": "tibetan",
    "place_of_worship:type": "prayer_flags",
    "religion": "buddhist"
  }
},
{
  "type": "node",
  "id": 3314496327,
  "lat": 27.6798375,
  "lon": 85.2749599,
  "tags": {
    "amenity": "place_of_worship",
    "religion": "buddhist"
  }
},
{
  "type": "node",
  "id": 3314840668,
  "lat": 32.9520489,
  "lon": 97.0405916,
  "tags": {
    "alt_name": "禅古寺;Old Thrangu Gompa;Thrangu Gompa;Trangu Monastery;Gato Tragu Gon Tashi Choling",
    "alt_name:bo": "ཁྲ་འགུ་དགོན།;སྒ་ཁྲ་འགུ་དགོན།;སྒ་སྟོད་ཁྲ་འགུ་དགོན་བཀྲ་ཤིས་ཆོས་གླིང་།",
    "amenity": "place_of_worship",
    "denomination": "tibetan",
    "name": "ཁྲ་འགུ་དགོན 创古寺",
    "name:bo": "ཁྲ་འགུ་དགོན",
    "name:en": "Old Thrangu Monastery",
    "name:zh": "创古寺",
    "name:zh-Latn-pinyin": "chuànggǔ sì",
    "note": "destroyed in 2010 Yushu earthquake",
    "religion": "buddhist",
    "wikidata": "Q7797126",
    "wikipedia": "en:Thrangu Monastery"
  }
},
{
  "type": "node",
  "id": 3314842284,
  "lat": 32.7914448,
  "lon": 97.1831945,
  "tags": {
    "amenity": "place_of_worship",
    "denomination": "tibetan",
    "place_of_worship:type": "prayer_flags",
    "religion": "buddhist"
  }
},
{
  "type": "node",
  "id": 3314843184,
  "lat": 32.9507366,
  "lon": 97.0368830,
  "tags": {
    "amenity": "place_of_worship",
    "denomination": "tibetan",
    "place_of_worship:type": "prayer_flags",
    "religion": "buddhist"
  }
},
{
  "type": "node",
  "id": 3314982249,
  "lat": 32.0872839,
  "lon": 95.9890082,
  "tags": {
    "amenity": "place_of_worship",
    "denomination": "tibetan",
    "place_of_worship:type": "prayer_flags",
    "religion": "buddhist"
  }
},
{
  "type": "node",
  "id": 3314987785,
  "lat": 32.0729467,
  "lon": 95.9931951,
  "tags": {
    "amenity": "place_of_worship",
    "denomination": "tibetan",
    "place_of_worship:type": "prayer_flags",
    "religion": "buddhist"
  }
},
{
  "type": "node",
  "id": 3314987787,
  "lat": 32.0734066,
  "lon": 95.9958303,
  "tags": {
    "amenity": "place_of_worship",
    "denomination": "tibetan",
    "place_of_worship:type": "prayer_flags",
    "religion": "buddhist"
  }
},
{
  "type": "node",
  "id": 3316086157,
  "lat": 33.2790991,
  "lon": 96.7297881,
  "tags": {
    "amenity": "place_of_worship",
    "denomination": "tibetan",
    "int_name": "Langpu Gongba",
    "name:en": "Langpu Monastery",
    "religion": "buddhist"
  }
},
{
  "type": "node",
  "id": 3316086159,
  "lat": 33.3181584,
  "lon": 96.8192163,
  "tags": {
    "alt_name": "Samdrub-Kloster",
    "amenity": "place_of_worship",
    "denomination": "tibetan",
    "name": "桑周寺",
    "name:de": "Sangzhou-Lamakloster",
    "name:en": "Samdrub Monastery",
    "name:zh": "桑周寺",
    "name:zh-Latn-pinyin": "sāngzhōu sì",
    "religion": "buddhist"
  }
},
{
  "type": "node",
  "id": 3316680466,
  "lat": 34.7568246,
  "lon": 95.1465373,
  "tags": {
    "amenity": "place_of_worship",
    "denomination": "tibetan",
    "place_of_worship:type": "prayer_flags",
    "religion": "buddhist"
  }
},
{
  "type": "node",
  "id": 3316890527,
  "lat": 29.5123880,
  "lon": 94.6334648,
  "tags": {
    "amenity": "place_of_worship",
    "name": "德木寺",
    "name:en": "Demo Monastery",
    "religion": "buddhist"
  }
},
{
  "type": "node",
  "id": 3317415246,
  "lat": 33.0048961,
  "lon": 95.8590027,
  "tags": {
    "amenity": "place_of_worship",
    "denomination": "tibetan",
    "place_of_worship:type": "prayer_flags",
    "religion": "buddhist"
  }
},
{
  "type": "node",
  "id": 3317415711,
  "lat": 33.0766365,
  "lon": 95.8192461,
  "tags": {
    "amenity": "place_of_worship",
    "denomination": "tibetan",
    "place_of_worship:type": "prayer_flags",
    "religion": "buddhist",
    "source": "bing"
  }
},
{
  "type": "node",
  "id": 3317415805,
  "lat": 33.0838448,
  "lon": 95.8036144,
  "tags": {
    "amenity": "place_of_worship",
    "denomination": "tibetan",
    "place_of_worship:type": "prayer_flags",
    "religion": "buddhist"
  }
},
{
  "type": "node",
  "id": 3317416209,
  "lat": 33.0958994,
  "lon": 96.2618571,
  "tags": {
    "amenity": "place_of_worship",
    "denomination": "tibetan",
    "place_of_worship:type": "prayer_flags",
    "religion": "buddhist"
  }
},
{
  "type": "node",
  "id": 3317416226,
  "lat": 33.0970127,
  "lon": 96.2621498,
  "tags": {
    "amenity": "place_of_worship",
    "denomination": "tibetan",
    "place_of_worship:type": "prayer_flags",
    "religion": "buddhist"
  }
},
{
  "type": "node",
  "id": 3318131004,
  "lat": 32.9170241,
  "lon": 95.3167198,
  "tags": {
    "alt_name": "Dzogchen",
    "alt_name:bo": "སྡེ་དགེ་རྫོགས་ཆེན་དགོན;ཨོ་རྒྱན་བསམ་གཏན་ཆོས་གླིང;རྫོགས་ཆེན་རུ་དམ་ཨོ་རྒྱན་བསམ་གཏན་ཆོས་གླིང",
    "alt_name:zh": "竹庆邬坚禅林;佐青寺",
    "amenity": "place_of_worship",
    "denomination": "tibetan",
    "int_name": "Dzogchen Gompa",
    "name": "རྫོགས་ཆེན་དགོན / 竹庆寺",
    "name:bo": "རྫ་སྟོད་རྫོགས་ཆེན་དགོན",
    "name:en": "Dzogchen Monastery",
    "name:zh": "竹庆寺",
    "religion": "buddhist",
    "wikidata": "Q1269528",
    "wikipedia": "zh:佐钦寺"
  }
},
{
  "type": "node",
  "id": 3318131018,
  "lat": 32.9176334,
  "lon": 95.3177835,
  "tags": {
    "amenity": "place_of_worship",
    "denomination": "tibetan",
    "religion": "buddhist"
  }
},
{
  "type": "node",
  "id": 3318131023,
  "lat": 32.9179171,
  "lon": 95.3185481,
  "tags": {
    "amenity": "place_of_worship",
    "denomination": "tibetan",
    "religion": "buddhist"
  }
},
{
  "type": "node",
  "id": 3318226452,
  "lat": 32.9073009,
  "lon": 95.2658582,
  "tags": {
    "alt_name": "日历寺",
    "amenity": "place_of_worship",
    "denomination": "tibetan",
    "name": "གཟི་དགོན་པ / 斯日寺",
    "name:bo": "གཟི་དགོན་པ",
    "name:en": "Rili Monastery",
    "name:zh": "斯日寺",
    "name:zh-Latn-pinyin": "rìlì sì",
    "religion": "buddhist",
    "source": "bing"
  }
},
{
  "type": "node",
  "id": 3318234773,
  "lat": 32.8457498,
  "lon": 95.4048984,
  "tags": {
    "amenity": "place_of_worship",
    "denomination": "tibetan",
    "place_of_worship:type": "prayer_flags",
    "religion": "buddhist"
  }
},
{
  "type": "node",
  "id": 3318847528,
  "lat": 33.0037997,
  "lon": 94.2734526,
  "tags": {
    "amenity": "place_of_worship",
    "denomination": "tibetan",
    "place_of_worship:type": "prayer_flags",
    "religion": "buddhist"
  }
},
{
  "type": "node",
  "id": 3319068721,
  "lat": 32.8760448,
  "lon": 95.5607807,
  "tags": {
    "amenity": "place_of_worship",
    "denomination": "tibetan",
    "religion": "buddhist"
  }
},
{
  "type": "node",
  "id": 3319068744,
  "lat": 32.8775622,
  "lon": 95.5618774,
  "tags": {
    "amenity": "place_of_worship",
    "denomination": "tibetan",
    "place_of_worship:type": "prayer_flags",
    "religion": "buddhist"
  }
},
{
  "type": "node",
  "id": 3319068745,
  "lat": 32.8775887,
  "lon": 95.5598655,
  "tags": {
    "amenity": "place_of_worship",
    "denomination": "tibetan",
    "place_of_worship:type": "prayer_flags",
    "religion": "buddhist"
  }
},