{
"type": "FeatureCollection",
"name": "PartialCheckpoints_RoadBlocks_Earthmounds",
"crs": { "type": "name", "properties": { "name": "urn:ogc:def:crs:OGC:1.3:CRS84" } },
"xy_coordinate_resolution": 8.98315e-10,
"z_coordinate_resolution": 0.0001,
"features": [
{ "type": "Feature", "properties": { "Name": "Izbat Shufa North", "District": "Tulkarm", "Type": "earthmound" }, "geometry": { "type": "Point", "coordinates": [ 35.0433598011, 32.2800652875 ] } },
{ "type": "Feature", "properties": { "Name": "North Hamra Earthmound 1", "District": "Nablus", "Type": "earthmound" }, "geometry": { "type": "Point", "coordinates": [ 35.4506389993, 32.2091670002 ] } },
{ "type": "Feature", "properties": { "Name": "Aqraba original entrance 505", "District": "Nablus", "Type": "earthmound" }, "geometry": { "type": "Point", "coordinates": [ 35.343624873, 32.1025817571 ] } },
{ "type": "Feature", "properties": { "Name": "Burin 3 roadblock", "District": "Nablus", "Type": "road block" }, "geometry": { "type": "Point", "coordinates": [ 35.2462947913, 32.177050464 ] } },
{ "type": "Feature", "properties": { "Name": "Jiljiliya Road 465 Earthmound 2", "District": "Ramallah", "Type": "earthmound" }, "geometry": { "type": "Point", "coordinates": [ 35.2275957794, 32.005165698 ] } },
{ "type": "Feature", "properties": { "Name": "Shuqba Earthmound 1", "District": "Ramallah", "Type": "earthmound" }, "geometry": { "type": "Point", "coordinates": [ 35.0538296606, 31.9865106172 ] } },
{ "type": "Feature", "properties": { "Name": "Abud Roadblock", "District": "Ramallah", "Type": "road block" }, "geometry": { "type": "Point", "coordinates": [ 35.0608829327, 32.0282140869 ] } },
{ "type": "Feature", "properties": { "Name": "Ein Yabrud Road 60 Earthmound 8", "District": "Ramallah", "Type": "earthmound" }, "geometry": { "type": "Point", "coordinates": [ 35.2553424428, 31.9455094307 ] } },
{ "type": "Feature", "properties": { "Name": "Shuqba Earthmound 3", "District": "Ramallah", "Type": "earthmound" }, "geometry": { "type": "Point", "coordinates": [ 35.0451867348, 31.9950071424 ] } },
{ "type": "Feature", "properties": { "Name": "Hamra", "District": "Nablus", "Type": "partial checkpoint" }, "geometry": { "type": "Point", "coordinates": [ 35.4490289995, 32.2065220001 ] } },
{ "type": "Feature", "properties": { "Name": "Road 60 Yatma culvert", "District": "Nablus", "Type": "road block" }, "geometry": { "type": "Point", "coordinates": [ 35.2476010007, 32.0967540002 ] } },
{ "type": "Feature", "properties": { "Name": "Tayasir", "District": "Tubas", "Type": "partial checkpoint" }, "geometry": { "type": "Point", "coordinates": [ 35.4365456581, 32.3288059993 ] } },
{ "type": "Feature", "properties": { "Name": "Bracha - Samaritan road", "District": "Nablus", "Type": "partial checkpoint" }, "geometry": { "type": "Point", "coordinates": [ 35.2683729995, 32.1939419999 ] } },
{ "type": "Feature", "properties": { "Name": "Yitzhar-Jit", "District": "Nablus", "Type": "partial checkpoint" }, "geometry": { "type": "Point", "coordinates": [ 35.2617569139, 32.1637075886 ] } },
{ "type": "Feature", "properties": { "Name": "Deir Ballut", "District": "Salfit", "Type": "partial checkpoint" }, "geometry": { "type": "Point", "coordinates": [ 35.0404649996, 32.0639200003 ] } },
{ "type": "Feature", "properties": { "Name": "Enav CP", "District": "Tulkarm", "Type": "partial checkpoint" }, "geometry": { "type": "Point", "coordinates": [ 35.1357810004, 32.290194 ] } },
{ "type": "Feature", "properties": { "Name": "Sarra - Jit", "District": "Qalqiliya", "Type": "partial checkpoint" }, "geometry": { "type": "Point", "coordinates": [ 35.1777199233, 32.215911101 ] } },
{ "type": "Feature", "properties": { "Name": "Huwwara", "District": "Nablus", "Type": "partial checkpoint" }, "geometry": { "type": "Point", "coordinates": [ 35.2734220005, 32.177657 ] } },
{ "type": "Feature", "properties": { "Name": "Ma'ale Efrayim", "District": "Nablus", "Type": "partial checkpoint" }, "geometry": { "type": "Point", "coordinates": [ 35.3794300006, 32.0891799999 ] } },
{ "type": "Feature", "properties": { "Name": "Agricultural road leads to 557", "District": "Tulkarm", "Type": "road block" }, "geometry": { "type": "Point", "coordinates": [ 35.0828405254, 32.2721556762 ] } },
{ "type": "Feature", "properties": { "Name": "557 Salim", "District": "Nablus", "Type": "earthmound" }, "geometry": { "type": "Point", "coordinates": [ 35.3341635712, 32.2178674593 ] } },
{ "type": "Feature", "properties": { "Name": "557 Salim 2", "District": "Nablus", "Type": "earthmound" }, "geometry": { "type": "Point", "coordinates": [ 35.343335187, 32.2067291144 ] } },
{ "type": "Feature", "properties": { "Name": "505 Jamma'in", "District": "Nablus", "Type": "earthmound" }, "geometry": { "type": "Point", "coordinates": [ 35.2098099997, 32.1229599995 ] } },
{ "type": "Feature", "properties": { "Name": "East Qaryut", "District": "Nablus", "Type": "earthmound" }, "geometry": { "type": "Point", "coordinates": [ 35.3158750007, 32.0566230002 ] } },
{ "type": "Feature", "properties": { "Name": "Izbat Shufa South", "District": "Tulkarm", "Type": "earthmound" }, "geometry": { "type": "Point", "coordinates": [ 35.0494956922, 32.2789777833 ] } },
{ "type": "Feature", "properties": { "Name": "Kafa-Al Haffasi 1", "District": "Tulkarm", "Type": "road block" }, "geometry": { "type": "Point", "coordinates": [ 35.0575542936, 32.2942298166 ] } },
{ "type": "Feature", "properties": { "Name": "West Huwwara EM", "District": "Nablus", "Type": "earthmound" }, "geometry": { "type": "Point", "coordinates": [ 35.2725239998, 32.1818870005 ] } },
{ "type": "Feature", "properties": { "Name": "North Hamra Earthmound 7", "District": "Tubas", "Type": "earthmound" }, "geometry": { "type": "Point", "coordinates": [ 35.4419720005, 32.2386200005 ] } },
{ "type": "Feature", "properties": { "Name": "Ramadin / Zufin", "District": "Qalqiliya", "Type": "earthmound" }, "geometry": { "type": "Point", "coordinates": [ 34.9964300006, 32.1951750003 ] } },
{ "type": "Feature", "properties": { "Name": "aqraba west block", "District": "Nablus", "Type": "road block" }, "geometry": { "type": "Point", "coordinates": [ 35.3267879998, 32.1204479998 ] } },
{ "type": "Feature", "properties": { "Name": "Bruqin - Northwest", "District": "Salfit", "Type": "road block" }, "geometry": { "type": "Point", "coordinates": [ 35.0877857735, 32.0769024677 ] } },
{ "type": "Feature", "properties": { "Name": "East Jammain dirt road", "District": "Nablus", "Type": "road block" }, "geometry": { "type": "Point", "coordinates": [ 35.2294740001, 32.1256209997 ] } },
{ "type": "Feature", "properties": { "Name": "Beita West to Huwara road", "District": "Nablus", "Type": "road block" }, "geometry": { "type": "Point", "coordinates": [ 35.2580080001, 32.1342499996 ] } },
{ "type": "Feature", "properties": { "Name": "Bet El DCO", "District": "Ramallah", "Type": "partial checkpoint" }, "geometry": { "type": "Point", "coordinates": [ 35.2257370003, 31.924007 ] } },
{ "type": "Feature", "properties": { "Name": "'Atara", "District": "Ramallah", "Type": "partial checkpoint" }, "geometry": { "type": "Point", "coordinates": [ 35.2004560002, 31.9828089998 ] } },
{ "type": "Feature", "properties": { "Name": "Jaba' ", "District": "Jerusalem", "Type": "partial checkpoint" }, "geometry": { "type": "Point", "coordinates": [ 35.25576, 31.8541200004 ] } },
{ "type": "Feature", "properties": { "Name": "North Hamra Earthmound 5", "District": "Tubas", "Type": "earthmound" }, "geometry": { "type": "Point", "coordinates": [ 35.4473862003, 32.227854135 ] } },
{ "type": "Feature", "properties": { "Name": "North Hamra Earthmound 2", "District": "Nablus", "Type": "earthmound" }, "geometry": { "type": "Point", "coordinates": [ 35.4502459997, 32.2108469998 ] } },
{ "type": "Feature", "properties": { "Name": "Jiljiliya Road 465 Earthmound 1", "District": "Ramallah", "Type": "earthmound" }, "geometry": { "type": "Point", "coordinates": [ 35.2293927391, 32.0042399856 ] } },
{ "type": "Feature", "properties": { "Name": "Deir Dibwan Earthmound", "District": "Ramallah", "Type": "earthmound" }, "geometry": { "type": "Point", "coordinates": [ 35.2866148336, 31.886674468 ] } },
{ "type": "Feature", "properties": { "Name": "North Hamra Earthmound 3", "District": "Nablus", "Type": "earthmound" }, "geometry": { "type": "Point", "coordinates": [ 35.4496510003, 32.2129979998 ] } },
{ "type": "Feature", "properties": { "Name": "Abu Nwar West Earthmound", "District": "Jerusalem", "Type": "earthmound" }, "geometry": { "type": "Point", "coordinates": [ 35.2883180003, 31.762587 ] } },
{ "type": "Feature", "properties": { "Name": "Burqa", "District": "Ramallah", "Type": "earthmound" }, "geometry": { "type": "Point", "coordinates": [ 35.2516836113, 31.908160246 ] } },
{ "type": "Feature", "properties": { "Name": "Khan Al Ahmar School Roadblock", "District": "Jerusalem", "Type": "road block" }, "geometry": { "type": "Point", "coordinates": [ 35.3400651792, 31.8112937523 ] } },
{ "type": "Feature", "properties": { "Name": "Abu Nuwar East EM", "District": "Jerusalem", "Type": "earthmound" }, "geometry": { "type": "Point", "coordinates": [ 35.291552, 31.7638350006 ] } },
{ "type": "Feature", "properties": { "Name": "Halhul(Nabi Youns) Entrance PCP", "District": "Hebron", "Type": "partial checkpoint" }, "geometry": { "type": "Point", "coordinates": [ 35.1199711652, 31.584990931 ] } },
{ "type": "Feature", "properties": { "Name": "Gush Etzion - Hebron PCP", "District": "Hebron", "Type": "partial checkpoint" }, "geometry": { "type": "Point", "coordinates": [ 35.1316719998, 31.6449130001 ] } },
{ "type": "Feature", "properties": { "Name": "Al Jalajel/Road 60", "District": "Hebron", "Type": "earthmound" }, "geometry": { "type": "Point", "coordinates": [ 35.1297889156, 31.5276439991 ] } },
{ "type": "Feature", "properties": { "Name": "Qalqas/Road 60 (1)", "District": "Hebron", "Type": "earthmound" }, "geometry": { "type": "Point", "coordinates": [ 35.1034291444, 31.498392754 ] } },
{ "type": "Feature", "properties": { "Name": "Tuqu'/Road 356 EM", "District": "Bethlehem", "Type": "earthmound" }, "geometry": { "type": "Point", "coordinates": [ 35.2036443227, 31.6476948063 ] } },
{ "type": "Feature", "properties": { "Name": "Tuqu' Western Entrance PCP", "District": "Bethlehem", "Type": "partial checkpoint" }, "geometry": { "type": "Point", "coordinates": [ 35.2031908885, 31.6398577245 ] } },
{ "type": "Feature", "properties": { "Name": "Bani Na'im Junction 60/356 EM", "District": "Hebron", "Type": "earthmound" }, "geometry": { "type": "Point", "coordinates": [ 35.1329890005, 31.5060499996 ] } },
{ "type": "Feature", "properties": { "Name": "Al 'Arrub Camp/Road 60 RB (2)", "District": "Hebron", "Type": "road block" }, "geometry": { "type": "Point", "coordinates": [ 35.1328819995, 31.6254369999 ] } },
{ "type": "Feature", "properties": { "Name": "Al 'Arrub Camp/Road 60 RB (3)", "District": "Hebron", "Type": "road block" }, "geometry": { "type": "Point", "coordinates": [ 35.1328740001, 31.6256490001 ] } },
{ "type": "Feature", "properties": { "Name": "Beit 'Einun PCP (Sa'ir Side)", "District": "Hebron", "Type": "partial checkpoint" }, "geometry": { "type": "Point", "coordinates": [ 35.1274, 31.5623 ] } },
{ "type": "Feature", "properties": { "Name": "Beit Einun PCP (Hebron Side)", "District": "Hebron", "Type": "partial checkpoint" }, "geometry": { "type": "Point", "coordinates": [ 35.1263869556, 31.5605289165 ] } },
{ "type": "Feature", "properties": { "Name": "Road Block/Near Bani Na'im (Yaqeen)", "District": "Hebron", "Type": "road block" }, "geometry": { "type": "Point", "coordinates": [ 35.1597519995, 31.4986330002 ] } },
{ "type": "Feature", "properties": { "Name": "Al 'Arrub Camp PCP", "District": "Hebron", "Type": "partial checkpoint" }, "geometry": { "type": "Point", "coordinates": [ 35.1318459996, 31.6242920003 ] } },
{ "type": "Feature", "properties": { "Name": "Sa'ir PCP", "District": "Hebron", "Type": "partial checkpoint" }, "geometry": { "type": "Point", "coordinates": [ 35.1211504562, 31.5860889297 ] } },
{ "type": "Feature", "properties": { "Name": "Earthmound/Halhul", "District": "Hebron", "Type": "earthmound" }, "geometry": { "type": "Point", "coordinates": [ 35.1056000308, 31.601846458 ] } },
{ "type": "Feature", "properties": { "Name": "Halhul (Al Hawawer)", "District": "Hebron", "Type": "partial checkpoint" }, "geometry": { "type": "Point", "coordinates": [ 35.1085190479, 31.5995998641 ] } },
{ "type": "Feature", "properties": { "Name": "Zif/Yatta PCP", "District": "Hebron", "Type": "partial checkpoint" }, "geometry": { "type": "Point", "coordinates": [ 35.1328022375, 31.4707724235 ] } },
{ "type": "Feature", "properties": { "Name": "Yatta/Road 356", "District": "Hebron", "Type": "earthmound" }, "geometry": { "type": "Point", "coordinates": [ 35.1355895314, 31.4662586152 ] } },
{ "type": "Feature", "properties": { "Name": "Beitin Road 60 Earthmound 2", "District": "Ramallah", "Type": "earthmound" }, "geometry": { "type": "Point", "coordinates": [ 35.2462770586, 31.9194241863 ] } },
{ "type": "Feature", "properties": { "Name": "At Tanib - Deir Sharaf", "District": "Nablus", "Type": "partial checkpoint" }, "geometry": { "type": "Point", "coordinates": [ 35.1717643876, 32.2636964734 ] } },
{ "type": "Feature", "properties": { "Name": "Beita main entrance PcP", "District": "Nablus", "Type": "partial checkpoint" }, "geometry": { "type": "Point", "coordinates": [ 35.2584614188, 32.137060277 ] } },
{ "type": "Feature", "properties": { "Name": "Aqraba west 1 em", "District": "Nablus", "Type": "earthmound" }, "geometry": { "type": "Point", "coordinates": [ 35.3351732201, 32.11559417 ] } },
{ "type": "Feature", "properties": { "Name": "Deir Dibwan EM 2", "District": "Ramallah", "Type": "earthmound" }, "geometry": { "type": "Point", "coordinates": [ 35.294124901, 31.8900603788 ] } },
{ "type": "Feature", "properties": { "Name": "Al Mughayyer EM 1", "District": "Ramallah", "Type": "earthmound" }, "geometry": { "type": "Point", "coordinates": [ 35.3505436517, 32.0257855653 ] } },
{ "type": "Feature", "properties": { "Name": "Khirbet Tana EM1", "District": "Jericho", "Type": "earthmound" }, "geometry": { "type": "Point", "coordinates": [ 35.4117310717, 32.1336579604 ] } },
{ "type": "Feature", "properties": { "Name": "Shuqba East 446 EM 2", "District": "Ramallah", "Type": "earthmound" }, "geometry": { "type": "Point", "coordinates": [ 35.0521431315, 31.9902610017 ] } },
{ "type": "Feature", "properties": { "Name": "Hebron City/Road 60 (6)", "District": "Hebron", "Type": "earthmound" }, "geometry": { "type": "Point", "coordinates": [ 35.1267370222, 31.5046475308 ] } },
{ "type": "Feature", "properties": { "Name": "Road 35/Tarqumiya (3)", "District": "Hebron", "Type": "earthmound" }, "geometry": { "type": "Point", "coordinates": [ 35.0060375626, 31.5610027096 ] } },
{ "type": "Feature", "properties": { "Name": "Idhna Entrance PCP", "District": "Hebron", "Type": "partial checkpoint" }, "geometry": { "type": "Point", "coordinates": [ 34.9820818526, 31.5721690628 ] } },
{ "type": "Feature", "properties": { "Name": "Susiya/Yatta PCP", "District": "Hebron", "Type": "partial checkpoint" }, "geometry": { "type": "Point", "coordinates": [ 35.0964163739, 31.4083995807 ] } },
{ "type": "Feature", "properties": { "Name": "As Samu'/Road 317 PCP", "District": "Hebron", "Type": "partial checkpoint" }, "geometry": { "type": "Point", "coordinates": [ 35.077299986, 31.3694467483 ] } },
{ "type": "Feature", "properties": { "Name": "Al Harayeq/Road 60 (2)", "District": "Hebron", "Type": "partial checkpoint" }, "geometry": { "type": "Point", "coordinates": [ 35.0768437523, 31.4950490228 ] } },
{ "type": "Feature", "properties": { "Name": "Dura PCP", "District": "Hebron", "Type": "partial checkpoint" }, "geometry": { "type": "Point", "coordinates": [ 35.0551258833, 31.4863526443 ] } },
{ "type": "Feature", "properties": { "Name": "As Samu'/Road 60 RB", "District": "Hebron", "Type": "road block" }, "geometry": { "type": "Point", "coordinates": [ 35.0346654963, 31.4198316986 ] } },
{ "type": "Feature", "properties": { "Name": "Jabal Johar Entrance PCP", "District": "Hebron", "Type": "partial checkpoint" }, "geometry": { "type": "Point", "coordinates": [ 35.1318280005, 31.51975 ] } },
{ "type": "Feature", "properties": { "Name": "Bani Na'im Entrance (Wadi Al Jouz) PCP", "District": "Hebron", "Type": "partial checkpoint" }, "geometry": { "type": "Point", "coordinates": [ 35.135196336, 31.516740471 ] } },
{ "type": "Feature", "properties": { "Name": "Al Majnoneh Camp PCP", "District": "Hebron", "Type": "partial checkpoint" }, "geometry": { "type": "Point", "coordinates": [ 35.0429102409, 31.482476299 ] } },
{ "type": "Feature", "properties": { "Name": "As Samu' Entrance PCP", "District": "Hebron", "Type": "partial checkpoint" }, "geometry": { "type": "Point", "coordinates": [ 35.0345673416, 31.4159761507 ] } },
{ "type": "Feature", "properties": { "Name": "Adh Dhahiriya PCP", "District": "Hebron", "Type": "partial checkpoint" }, "geometry": { "type": "Point", "coordinates": [ 35.0197378822, 31.4442885572 ] } },
{ "type": "Feature", "properties": { "Name": "Al Fahs PCP 2", "District": "Hebron", "Type": "partial checkpoint" }, "geometry": { "type": "Point", "coordinates": [ 35.1193898517, 31.5002319678 ] } },
{ "type": "Feature", "properties": { "Name": "Beit Ummar Entrance/Road 60  PCP", "District": "Hebron", "Type": "partial checkpoint" }, "geometry": { "type": "Point", "coordinates": [ 35.1154265276, 31.6185698241 ] } },
{ "type": "Feature", "properties": { "Name": "Gush Etzoin-West", "District": "Bethlehem", "Type": "partial checkpoint" }, "geometry": { "type": "Point", "coordinates": [ 35.1305619812, 31.6470687137 ] } },
{ "type": "Feature", "properties": { "Name": "Beit Jala/Dar Salah PCP", "District": "Bethlehem", "Type": "partial checkpoint" }, "geometry": { "type": "Point", "coordinates": [ 35.2490099238, 31.7041951973 ] } },
{ "type": "Feature", "properties": { "Name": "Khallet Edar/Road 356 ", "District": "Hebron", "Type": "earthmound" }, "geometry": { "type": "Point", "coordinates": [ 35.1330125514, 31.5017406011 ] } },
{ "type": "Feature", "properties": { "Name": "Bani Na'im (Yaqeen)/EM", "District": "Hebron", "Type": "road block" }, "geometry": { "type": "Point", "coordinates": [ 35.1528455222, 31.4987920918 ] } },
{ "type": "Feature", "properties": { "Name": "Al Karmil PCP", "District": "Hebron", "Type": "partial checkpoint" }, "geometry": { "type": "Point", "coordinates": [ 35.1501346094, 31.4168126929 ] } },
{ "type": "Feature", "properties": { "Name": "Ar Ramadin PCP", "District": "Hebron", "Type": "partial checkpoint" }, "geometry": { "type": "Point", "coordinates": [ 34.9429052509, 31.3599613731 ] } },
{ "type": "Feature", "properties": { "Name": "Bethlehem Main Entrance PCP", "District": "Bethlehem", "Type": "partial checkpoint" }, "geometry": { "type": "Point", "coordinates": [ 35.1601764229, 31.6859518662 ] } },
{ "type": "Feature", "properties": { "Name": "Beit Jala/DCL PCP", "District": "Bethlehem", "Type": "partial checkpoint" }, "geometry": { "type": "Point", "coordinates": [ 35.1778647385, 31.7159521156 ] } },
{ "type": "Feature", "properties": { "Name": "Um Rukba/Al Khadr", "District": "Bethlehem", "Type": "partial checkpoint" }, "geometry": { "type": "Point", "coordinates": [ 35.1662484245, 31.6846865595 ] } },
{ "type": "Feature", "properties": { "Name": "Marah Rabah PCP", "District": "Bethlehem", "Type": "partial checkpoint" }, "geometry": { "type": "Point", "coordinates": [ 35.2022576161, 31.6337276709 ] } },
{ "type": "Feature", "properties": { "Name": "Wadi Sa'ir PCP", "District": "Hebron", "Type": "partial checkpoint" }, "geometry": { "type": "Point", "coordinates": [ 35.1803429494, 31.5983435775 ] } },
{ "type": "Feature", "properties": { "Name": "Al 'Uddeisa Earthmound", "District": "Hebron", "Type": "earthmound" }, "geometry": { "type": "Point", "coordinates": [ 35.1373652369, 31.5567285622 ] } },
{ "type": "Feature", "properties": { "Name": "Hebron (Farsh al Hawa) PCP", "District": "Hebron", "Type": "partial checkpoint" }, "geometry": { "type": "Point", "coordinates": [ 35.0786621381, 31.5601554745 ] } },
{ "type": "Feature", "properties": { "Name": "Halhul/Road 35 ( Wadi Qaboun) ", "District": "Hebron", "Type": "earthmound" }, "geometry": { "type": "Point", "coordinates": [ 35.1059377934, 31.5635269973 ] } },
{ "type": "Feature", "properties": { "Name": "Al Fahs (Hebron) PCP ", "District": "Hebron", "Type": "partial checkpoint" }, "geometry": { "type": "Point", "coordinates": [ 35.1180612422, 31.5008779289 ] } },
{ "type": "Feature", "properties": { "Name": "Al Fawwar Main entrance PCP ", "District": "Hebron", "Type": "partial checkpoint" }, "geometry": { "type": "Point", "coordinates": [ 35.0559379657, 31.4858164285 ] } },
{ "type": "Feature", "properties": { "Name": "Beit Awwa PCP ", "District": "Hebron", "Type": "partial checkpoint" }, "geometry": { "type": "Point", "coordinates": [ 34.9619329249, 31.498780064 ] } },
{ "type": "Feature", "properties": { "Name": "Tell-Burin - Nablus to road 60", "District": "Nablus", "Type": "partial checkpoint" }, "geometry": { "type": "Point", "coordinates": [ 35.2306296888, 32.1957655003 ] } },
{ "type": "Feature", "properties": { "Name": "Wadi Ash Shajina Entrance PCP", "District": "Hebron", "Type": "partial checkpoint" }, "geometry": { "type": "Point", "coordinates": [ 35.0342108743, 31.4706388551 ] } },
{ "type": "Feature", "properties": { "Name": "Khirbet Tana Rd 508  EM 3", "District": "Jericho", "Type": "earthmound" }, "geometry": { "type": "Point", "coordinates": [ 35.4298878744, 32.1874151848 ] } },
{ "type": "Feature", "properties": { "Name": "Hamra CP North EM 6", "District": "Tubas", "Type": "earthmound" }, "geometry": { "type": "Point", "coordinates": [ 35.4459184252, 32.2293226282 ] } },
{ "type": "Feature", "properties": { "Name": "Beit Ta'mir PCP", "District": "Bethlehem", "Type": "partial checkpoint" }, "geometry": { "type": "Point", "coordinates": [ 35.2465129602, 31.6761959177 ] } },
{ "type": "Feature", "properties": { "Name": "Jannatah CP (Main entrance)", "District": "Bethlehem", "Type": "partial checkpoint" }, "geometry": { "type": "Point", "coordinates": [ 35.2265971983, 31.6648184626 ] } },
{ "type": "Feature", "properties": { "Name": "Qarawat Bani Hassan - PCP", "District": "Salfit", "Type": "partial checkpoint" }, "geometry": { "type": "Point", "coordinates": [ 35.1027807351, 32.117802421 ] } },
{ "type": "Feature", "properties": { "Name": "Qaryut  road to road 60", "District": "Nablus", "Type": "road block" }, "geometry": { "type": "Point", "coordinates": [ 35.2845761295, 32.0589036906 ] } },
{ "type": "Feature", "properties": { "Name": "Izbet Shufa north west to Road 557 ", "District": "Tulkarm", "Type": "road block" }, "geometry": { "type": "Point", "coordinates": [ 35.0466929936, 32.2795559375 ] } },
{ "type": "Feature", "properties": { "Name": "Betin-Road 60 EM 1 -new, replacing the old tower", "District": "Ramallah", "Type": "earthmound" }, "geometry": { "type": "Point", "coordinates": [ 35.2467107036, 31.9168689143 ] } },
{ "type": "Feature", "properties": { "Name": "Al 'Isawiya Rd Block", "District": "Jerusalem", "Type": "road block" }, "geometry": { "type": "Point", "coordinates": [ 35.243319202, 31.7954882626 ] } },
{ "type": "Feature", "properties": { "Name": "Dhahrat an Nada PCP", "District": "Bethlehem", "Type": "partial checkpoint" }, "geometry": { "type": "Point", "coordinates": [ 35.2451857648, 31.6925925058 ] } },
{ "type": "Feature", "properties": { "Name": "Husan Western Entrance (PCP)", "District": "Bethlehem", "Type": "partial checkpoint" }, "geometry": { "type": "Point", "coordinates": [ 35.1269350487, 31.7062893323 ] } },
{ "type": "Feature", "properties": { "Name": "Tuqu Northern Entrance", "District": "Bethlehem", "Type": "partial checkpoint" }, "geometry": { "type": "Point", "coordinates": [ 35.2182904021, 31.647983504 ] } },
{ "type": "Feature", "properties": { "Name": "Khirbet Tuqu PCP", "District": "Bethlehem", "Type": "partial checkpoint" }, "geometry": { "type": "Point", "coordinates": [ 35.2085568633, 31.6271538444 ] } },
{ "type": "Feature", "properties": { "Name": " Al Khadr PCP ", "District": "Bethlehem", "Type": "partial checkpoint" }, "geometry": { "type": "Point", "coordinates": [ 35.1564877104, 31.7049993149 ] } },
{ "type": "Feature", "properties": { "Name": "Ya'abad1", "District": "Jenin", "Type": "partial checkpoint" }, "geometry": { "type": "Point", "coordinates": [ 35.1527863187, 32.4340260145 ] } },
{ "type": "Feature", "properties": { "Name": " Khirbet Faraseen ", "District": "Jenin", "Type": "partial checkpoint" }, "geometry": { "type": "Point", "coordinates": [ 35.1206058158, 32.4274878771 ] } },
{ "type": "Feature", "properties": { "Name": "Izbat Shufa Southeast - Road 557 ", "District": "Tulkarm", "Type": "earthmound" }, "geometry": { "type": "Point", "coordinates": [ 35.0521602208, 32.2787024088 ] } },
{ "type": "Feature", "properties": { "Name": "Nablus/Qalqiliya junction - Tulkarm", "District": "Qalqiliya", "Type": "partial checkpoint" }, "geometry": { "type": "Point", "coordinates": [ 35.1758791094, 32.2164383745 ] } },
{ "type": "Feature", "properties": { "Name": "Kaffa, Al Haffasi to Dinnabeh", "District": "Tulkarm", "Type": "road block" }, "geometry": { "type": "Point", "coordinates": [ 35.0607030937, 32.296366305 ] } },
{ "type": "Feature", "properties": { "Name": "Ya'abad2", "District": "Jenin", "Type": "partial checkpoint" }, "geometry": { "type": "Point", "coordinates": [ 35.1652920975, 32.4345103273 ] } },
{ "type": "Feature", "properties": { "Name": "Burin-tell junction - Road 60", "District": "Nablus", "Type": "partial checkpoint" }, "geometry": { "type": "Point", "coordinates": [ 35.230572185, 32.1948597639 ] } },
{ "type": "Feature", "properties": { "Name": "Huwwara earth mound", "District": "Nablus", "Type": "earthmound" }, "geometry": { "type": "Point", "coordinates": [ 35.265035792, 32.1666113749 ] } },
{ "type": "Feature", "properties": { "Name": "Road blocks huwwara", "District": "Nablus", "Type": "road block" }, "geometry": { "type": "Point", "coordinates": [ 35.2656919179, 32.1671429154 ] } },
{ "type": "Feature", "properties": { "Name": "Deir Ibzi ", "District": "Ramallah", "Type": "earthmound" }, "geometry": { "type": "Point", "coordinates": [ 35.1335929615, 31.9182348905 ] } },
{ "type": "Feature", "properties": { "Name": "Arab al Khouli PCP", "District": "Qalqiliya", "Type": "road block" }, "geometry": { "type": "Point", "coordinates": [ 35.0658460689, 32.1588496156 ] } },
{ "type": "Feature", "properties": { "Name": "Beit Furik entrance- road 555", "District": "Nablus", "Type": "partial checkpoint" }, "geometry": { "type": "Point", "coordinates": [ 35.3203620126, 32.1965992742 ] } },
{ "type": "Feature", "properties": { "Name": "Al Junidi ", "District": "Nablus", "Type": "partial checkpoint" }, "geometry": { "type": "Point", "coordinates": [ 35.1680370947, 32.2658242968 ] } },
{ "type": "Feature", "properties": { "Name": "Tublas south ", "District": "Jerusalem", "Type": "road block" }, "geometry": { "type": "Point", "coordinates": [ 35.2662172614, 31.8251495329 ] } },
{ "type": "Feature", "properties": { "Name": "Beit Ummar/Road 60 EM ", "District": "Hebron", "Type": "earthmound" }, "geometry": { "type": "Point", "coordinates": [ 35.1129604464, 31.6126658457 ] } },
{ "type": "Feature", "properties": { "Name": "Sabastiya main entrance", "District": "Nablus", "Type": "partial checkpoint" }, "geometry": { "type": "Point", "coordinates": [ 35.1821508231, 32.271436196 ] } },
{ "type": "Feature", "properties": { "Name": "Sabastiya- Sahel Ramin", "District": "Nablus", "Type": "partial checkpoint" }, "geometry": { "type": "Point", "coordinates": [ 35.176754693, 32.2752133765 ] } },
{ "type": "Feature", "properties": { "Name": "Evacuated Homesh Israeli settlement ( Burqa village lands) to road “60”", "District": "Nablus", "Type": "partial checkpoint" }, "geometry": { "type": "Point", "coordinates": [ 35.1798643427, 32.3086695508 ] } },
{ "type": "Feature", "properties": { "Name": "Qalqilia main entrance", "District": "Qalqiliya", "Type": "partial checkpoint" }, "geometry": { "type": "Point", "coordinates": [ 34.996427844, 32.1880651307 ] } },
{ "type": "Feature", "properties": { "Name": "Tarqumiya/ Road 35 EM ", "District": "Hebron", "Type": "earthmound" }, "geometry": { "type": "Point", "coordinates": [ 35.0250141885, 31.5579899713 ] } },
{ "type": "Feature", "properties": { "Name": "Tarqumiya Entrance PCP ", "District": "Hebron", "Type": "partial checkpoint" }, "geometry": { "type": "Point", "coordinates": [ 34.9827209984, 31.5732851484 ] } },
{ "type": "Feature", "properties": { "Name": "Beit Awwa South RB", "District": "Hebron", "Type": "road block" }, "geometry": { "type": "Point", "coordinates": [ 34.9503864354, 31.4979943441 ] } },
{ "type": "Feature", "properties": { "Name": "Qalqas/Hebron PCP", "District": "Hebron", "Type": "partial checkpoint" }, "geometry": { "type": "Point", "coordinates": [ 35.0955485082, 31.4976451127 ] } },
{ "type": "Feature", "properties": { "Name": "Ras Karkar agricultural road to 455", "District": "Ramallah", "Type": "earthmound" }, "geometry": { "type": "Point", "coordinates": [ 35.1018161646, 31.9429820344 ] } },
{ "type": "Feature", "properties": { "Name": "Beit circle road 60", "District": "Nablus", "Type": "partial checkpoint" }, "geometry": { "type": "Point", "coordinates": [ 35.2580843468, 32.1370820052 ] } },
{ "type": "Feature", "properties": { "Name": "Jurish em", "District": "Nablus", "Type": "earthmound" }, "geometry": { "type": "Point", "coordinates": [ 35.3156945101, 32.1195986975 ] } },
{ "type": "Feature", "properties": { "Name": "Aqraba agricultural road to rd 505", "District": "Nablus", "Type": "earthmound" }, "geometry": { "type": "Point", "coordinates": [ 35.3151891293, 32.1196214778 ] } },
{ "type": "Feature", "properties": { "Name": "Aqraba west agricultural road", "District": "Nablus", "Type": "earthmound" }, "geometry": { "type": "Point", "coordinates": [ 35.3423067944, 32.1054862376 ] } },
{ "type": "Feature", "properties": { "Name": "Qusra entrance pcp", "District": "Nablus", "Type": "partial checkpoint" }, "geometry": { "type": "Point", "coordinates": [ 35.3423469837, 32.0855175529 ] } },
{ "type": "Feature", "properties": { "Name": "Halhul Bridge PCP", "District": "Hebron", "Type": "partial checkpoint" }, "geometry": { "type": "Point", "coordinates": [ 35.100485198, 31.5629837971 ] } },
{ "type": "Feature", "properties": { "Name": "Northern West Sinjil RB", "District": "Ramallah", "Type": "road block" }, "geometry": { "type": "Point", "coordinates": [ 35.2565415674, 32.0547282323 ] } },
{ "type": "Feature", "properties": { "Name": "Silwad west agricultural road ", "District": "Ramallah", "Type": "earthmound" }, "geometry": { "type": "Point", "coordinates": [ 35.25430494, 32.0048600153 ] } },
{ "type": "Feature", "properties": { "Name": "Al Mazra'a Ash Sharqiya EM", "District": "Ramallah", "Type": "earthmound" }, "geometry": { "type": "Point", "coordinates": [ 35.2545461438, 32.0047592085 ] } },
{ "type": "Feature", "properties": { "Name": "Ein Yabrud EM", "District": "Ramallah", "Type": "earthmound" }, "geometry": { "type": "Point", "coordinates": [ 35.2547569594, 31.9448673234 ] } },
{ "type": "Feature", "properties": { "Name": "Khirbet ad Deir/Road 356 PCP (2)", "District": "Bethlehem", "Type": "partial checkpoint" }, "geometry": { "type": "Point", "coordinates": [ 35.2129374732, 31.6515743419 ] } },
{ "type": "Feature", "properties": { "Name": "Kafr ad Dik - North 2", "District": "Salfit", "Type": "road block" }, "geometry": { "type": "Point", "coordinates": [ 35.0794551828, 32.0742457426 ] } },
{ "type": "Feature", "properties": { "Name": "Kafr ad Dik - North 3", "District": "Salfit", "Type": "road block" }, "geometry": { "type": "Point", "coordinates": [ 35.0824698573, 32.0745917082 ] } },
{ "type": "Feature", "properties": { "Name": "Husan PCP", "District": "Bethlehem", "Type": "partial checkpoint" }, "geometry": { "type": "Point", "coordinates": [ 35.1389481592, 31.7068217504 ] } },
{ "type": "Feature", "properties": { "Name": "Husan/Nahhalin PCP", "District": "Bethlehem", "Type": "partial checkpoint" }, "geometry": { "type": "Point", "coordinates": [ 35.1231217847, 31.6914948547 ] } },
{ "type": "Feature", "properties": { "Name": "Bizzariya", "District": "Nablus", "Type": "partial checkpoint" }, "geometry": { "type": "Point", "coordinates": [ 35.1757319741, 32.3061916561 ] } },
{ "type": "Feature", "properties": { "Name": "Ariel Roundabout", "District": "Salfit", "Type": "partial checkpoint" }, "geometry": { "type": "Point", "coordinates": [ 35.1659346183, 32.1091753577 ] } },
{ "type": "Feature", "properties": { "Name": "Haris PCP", "District": "Salfit", "Type": "partial checkpoint" }, "geometry": { "type": "Point", "coordinates": [ 35.1386812799, 32.1093943759 ] } },
{ "type": "Feature", "properties": { "Name": "Bruqin", "District": "Salfit", "Type": "road block" }, "geometry": { "type": "Point", "coordinates": [ 35.1096393258, 32.0900986065 ] } },
{ "type": "Feature", "properties": { "Name": "Bruqin - Barkan", "District": "Salfit", "Type": "road block" }, "geometry": { "type": "Point", "coordinates": [ 35.1162328669, 32.0951498771 ] } },
{ "type": "Feature", "properties": { "Name": "Haris- internal road ", "District": "Salfit", "Type": "road block" }, "geometry": { "type": "Point", "coordinates": [ 35.1345046603, 32.1141430598 ] } },
{ "type": "Feature", "properties": { "Name": "Haris - Wadi Qana road (5066)", "District": "Salfit", "Type": "earthmound" }, "geometry": { "type": "Point", "coordinates": [ 35.1348587965, 32.1169604687 ] } },
{ "type": "Feature", "properties": { "Name": "Deir Istiya entrance", "District": "Salfit", "Type": "partial checkpoint" }, "geometry": { "type": "Point", "coordinates": [ 35.1377669815, 32.1392656767 ] } },
{ "type": "Feature", "properties": { "Name": "Deir Istiya - dirt road to wadi Qana road", "District": "Salfit", "Type": "road block" }, "geometry": { "type": "Point", "coordinates": [ 35.139793, 32.1414129995 ] } },
{ "type": "Feature", "properties": { "Name": "Kedumim circle-PcP", "District": "Qalqiliya", "Type": "partial checkpoint" }, "geometry": { "type": "Point", "coordinates": [ 35.1576956266, 32.2076194266 ] } },
{ "type": "Feature", "properties": { "Name": "Bani Dar RB.1 ", "District": "Hebron", "Type": "road block" }, "geometry": { "type": "Point", "coordinates": [ 35.1086673508, 31.5239584268 ] } },
{ "type": "Feature", "properties": { "Name": "Bani Naim/Road 356 PCP", "District": "Hebron", "Type": "partial checkpoint" }, "geometry": { "type": "Point", "coordinates": [ 35.1429078405, 31.4902266225 ] } },
{ "type": "Feature", "properties": { "Name": "Yatta /Road 356 EM", "District": "Hebron", "Type": "earthmound" }, "geometry": { "type": "Point", "coordinates": [ 35.1379636333, 31.4647550117 ] } },
{ "type": "Feature", "properties": { "Name": "Yatta road 317 EM", "District": "Hebron", "Type": "earthmound" }, "geometry": { "type": "Point", "coordinates": [ 35.138907758, 31.4634870134 ] } },
{ "type": "Feature", "properties": { "Name": "Jabal Johur RB, Near Kiryat Arab’a", "District": "Hebron", "Type": "road block" }, "geometry": { "type": "Point", "coordinates": [ 35.1236679043, 31.5265867009 ] } },
{ "type": "Feature", "properties": { "Name": "Jabal Jouhr PCP", "District": "Hebron", "Type": "partial checkpoint" }, "geometry": { "type": "Point", "coordinates": [ 35.1229351814, 31.524821588 ] } },
{ "type": "Feature", "properties": { "Name": "Umm Al Kheir PCP", "District": "Hebron", "Type": "partial checkpoint" }, "geometry": { "type": "Point", "coordinates": [ 35.1862944829, 31.4335767849 ] } },
{ "type": "Feature", "properties": { "Name": "Umm ad Daraj PCP", "District": "Hebron", "Type": "partial checkpoint" }, "geometry": { "type": "Point", "coordinates": [ 35.1860711447, 31.433683602 ] } },
{ "type": "Feature", "properties": { "Name": "Bani Naim Entrance (Al Jalajel) PCP", "District": "Hebron", "Type": "partial checkpoint" }, "geometry": { "type": "Point", "coordinates": [ 35.1318802876, 31.5318329258 ] } },
{ "type": "Feature", "properties": { "Name": "Beit Ummar / Road 60", "District": "Hebron", "Type": "earthmound" }, "geometry": { "type": "Point", "coordinates": [ 35.1198649126, 31.6214322025 ] } },
{ "type": "Feature", "properties": { "Name": "Al Maniya  PCP", "District": "Bethlehem", "Type": "partial checkpoint" }, "geometry": { "type": "Point", "coordinates": [ 35.2159002601, 31.6241124952 ] } },
{ "type": "Feature", "properties": { "Name": "Arab Ar Rashaiyda PCP", "District": "Bethlehem", "Type": "partial checkpoint" }, "geometry": { "type": "Point", "coordinates": [ 35.2289688329, 31.5924687471 ] } },
{ "type": "Feature", "properties": { "Name": "Al Daboya RB", "District": "Hebron", "Type": "road block" }, "geometry": { "type": "Point", "coordinates": [ 35.1035160201, 31.5268584424 ] } },
{ "type": "Feature", "properties": { "Name": "Al Jabaa/Surif PCP", "District": "Bethlehem", "Type": "partial checkpoint" }, "geometry": { "type": "Point", "coordinates": [ 35.0742346597, 31.6692295228 ] } },
{ "type": "Feature", "properties": { "Name": "Tal Rumeida RB (Near YAS)", "District": "Hebron", "Type": "road block" }, "geometry": { "type": "Point", "coordinates": [ 35.1034180303, 31.525124994 ] } },
{ "type": "Feature", "properties": { "Name": "Gold Market RB", "District": "Hebron", "Type": "road block" }, "geometry": { "type": "Point", "coordinates": [ 35.1046467056, 31.5260821456 ] } },
{ "type": "Feature", "properties": { "Name": "Al Khadr West PCP", "District": "Bethlehem", "Type": "partial checkpoint" }, "geometry": { "type": "Point", "coordinates": [ 35.1575346101, 31.7046149214 ] } },
{ "type": "Feature", "properties": { "Name": "Bab Al Baladieyeh RB", "District": "Hebron", "Type": "road block" }, "geometry": { "type": "Point", "coordinates": [ 35.105342511, 31.5259358841 ] } },
{ "type": "Feature", "properties": { "Name": "Old Bus Station Entrance RB", "District": "Hebron", "Type": "road block" }, "geometry": { "type": "Point", "coordinates": [ 35.1061413767, 31.525108449 ] } },
{ "type": "Feature", "properties": { "Name": "From Al Qazazin Mosque to Old Bus Station", "District": "Hebron", "Type": "road block" }, "geometry": { "type": "Point", "coordinates": [ 35.1061243409, 31.5242651644 ] } },
{ "type": "Feature", "properties": { "Name": "Chicken Market RB", "District": "Hebron", "Type": "road block" }, "geometry": { "type": "Point", "coordinates": [ 35.1061120941, 31.5242351122 ] } },
{ "type": "Feature", "properties": { "Name": "Kafriat PCP", "District": "Tulkarm", "Type": "partial checkpoint" }, "geometry": { "type": "Point", "coordinates": [ 35.0408021484, 32.2809717546 ] } },
{ "type": "Feature", "properties": { "Name": "Shufa South PCP 557", "District": "Tulkarm", "Type": "partial checkpoint" }, "geometry": { "type": "Point", "coordinates": [ 35.0824340796, 32.2719642461 ] } },
{ "type": "Feature", "properties": { "Name": "Tuqu'/RD 356 PCP", "District": "Bethlehem", "Type": "partial checkpoint" }, "geometry": { "type": "Point", "coordinates": [ 35.2023942213, 31.6409236477 ] } },
{ "type": "Feature", "properties": { "Name": "Wadi Al Ghrous RB.1", "District": "Hebron", "Type": "road block" }, "geometry": { "type": "Point", "coordinates": [ 35.113956552, 31.5287923917 ] } },
{ "type": "Feature", "properties": { "Name": "Rajabi Building PCP", "District": "Hebron", "Type": "partial checkpoint" }, "geometry": { "type": "Point", "coordinates": [ 35.1134752279, 31.5267398467 ] } },
{ "type": "Feature", "properties": { "Name": "Jaber neighborhood RB.1", "District": "Hebron", "Type": "road block" }, "geometry": { "type": "Point", "coordinates": [ 35.1124140624, 31.5237154532 ] } },
{ "type": "Feature", "properties": { "Name": "Jaber Neighborhood RB. 2 ", "District": "Hebron", "Type": "road block" }, "geometry": { "type": "Point", "coordinates": [ 35.1124476969, 31.5244489397 ] } },
{ "type": "Feature", "properties": { "Name": "Ash Shawawreh PCP", "District": "Bethlehem", "Type": "partial checkpoint" }, "geometry": { "type": "Point", "coordinates": [ 35.2437717372, 31.6945407534 ] } },
{ "type": "Feature", "properties": { "Name": "Tuqu/Road 356 PCP (2)", "District": "Bethlehem", "Type": "partial checkpoint" }, "geometry": { "type": "Point", "coordinates": [ 35.2110994145, 31.6515745735 ] } },
{ "type": "Feature", "properties": { "Name": "Khirbet ad Deir/Road 356 PCP  ", "District": "Bethlehem", "Type": "partial checkpoint" }, "geometry": { "type": "Point", "coordinates": [ 35.206674859, 31.6525881132 ] } },
{ "type": "Feature", "properties": { "Name": "Al Ibrahimeyeh School RB", "District": "Hebron", "Type": "road block" }, "geometry": { "type": "Point", "coordinates": [ 35.1095401531, 31.5230952338 ] } },
{ "type": "Feature", "properties": { "Name": "Al Salaymeh Neigbourhood RB.1", "District": "Hebron", "Type": "road block" }, "geometry": { "type": "Point", "coordinates": [ 35.1120004726, 31.5238070719 ] } },
{ "type": "Feature", "properties": { "Name": "Al Salaymeh CP RB.1", "District": "Hebron", "Type": "road block" }, "geometry": { "type": "Point", "coordinates": [ 35.1133490015, 31.5218600621 ] } },
{ "type": "Feature", "properties": { "Name": "Jit south west/Kedumim south", "District": "Qalqiliya", "Type": "partial checkpoint" }, "geometry": { "type": "Point", "coordinates": [ 35.1626024471, 32.2093172484 ] } },
{ "type": "Feature", "properties": { "Name": "Al Salaymeh CP RB.2", "District": "Hebron", "Type": "road block" }, "geometry": { "type": "Point", "coordinates": [ 35.112525761, 31.522565865 ] } },
{ "type": "Feature", "properties": { "Name": "Qitoun RB.1 ", "District": "Hebron", "Type": "road block" }, "geometry": { "type": "Point", "coordinates": [ 35.1075279181, 31.5230331096 ] } },
{ "type": "Feature", "properties": { "Name": "Qitoun RB.2", "District": "Hebron", "Type": "road block" }, "geometry": { "type": "Point", "coordinates": [ 35.1070748635, 31.5225906351 ] } },
{ "type": "Feature", "properties": { "Name": "Beit Awwar Agricultural RB", "District": "Hebron", "Type": "road block" }, "geometry": { "type": "Point", "coordinates": [ 34.960161326, 31.4975059736 ] } },
{ "type": "Feature", "properties": { "Name": "Qalqas PCP", "District": "Hebron", "Type": "partial checkpoint" }, "geometry": { "type": "Point", "coordinates": [ 35.0953287448, 31.4971476291 ] } },
{ "type": "Feature", "properties": { "Name": "Ha last tunnels concrete blocks ", "District": "Qalqiliya", "Type": "partial checkpoint" }, "geometry": { "type": "Point", "coordinates": [ 34.975460167, 32.1723354952 ] } },
{ "type": "Feature", "properties": { "Name": "Cemetery Entrance RB", "District": "Hebron", "Type": "road block" }, "geometry": { "type": "Point", "coordinates": [ 35.1054510257, 31.5242037352 ] } },
{ "type": "Feature", "properties": { "Name": "Tell-concrete blocks 1", "District": "Nablus", "Type": "partial checkpoint" }, "geometry": { "type": "Point", "coordinates": [ 35.2311733778, 32.198026919 ] } },
{ "type": "Feature", "properties": { "Name": "Tell PCP 2", "District": "Nablus", "Type": "partial checkpoint" }, "geometry": { "type": "Point", "coordinates": [ 35.2312410109, 32.195311802 ] } },
{ "type": "Feature", "properties": { "Name": "At Tuwani PCP", "District": "Hebron", "Type": "partial checkpoint" }, "geometry": { "type": "Point", "coordinates": [ 35.1512780014, 31.416710657 ] } },
{ "type": "Feature", "properties": { "Name": "Khirbet Bir al Idd RB", "District": "Hebron", "Type": "road block" }, "geometry": { "type": "Point", "coordinates": [ 35.1336969605, 31.3835023584 ] } },
{ "type": "Feature", "properties": { "Name": "Evatar PcP", "District": "Nablus", "Type": "partial checkpoint" }, "geometry": { "type": "Point", "coordinates": [ 35.2738987528, 32.1171905702 ] } },
{ "type": "Feature", "properties": { "Name": "Evatar road block", "District": "Nablus", "Type": "road block" }, "geometry": { "type": "Point", "coordinates": [ 35.2864145303, 32.119734682 ] } },
{ "type": "Feature", "properties": { "Name": "Osarin ", "District": "Nablus", "Type": "earthmound" }, "geometry": { "type": "Point", "coordinates": [ 35.3125634588, 32.121854022 ] } },
{ "type": "Feature", "properties": { "Name": "Old Qurtoba School Stairway RB", "District": "Hebron", "Type": "road block" }, "geometry": { "type": "Point", "coordinates": [ 35.1046365965, 31.5256209025 ] } },
{ "type": "Feature", "properties": { "Name": "Al Muhtaseb Neighborhood RB ", "District": "Hebron", "Type": "road block" }, "geometry": { "type": "Point", "coordinates": [ 35.1097599998, 31.5244197697 ] } },
{ "type": "Feature", "properties": { "Name": "Aqraba agricultural entrance", "District": "Nablus", "Type": "road block" }, "geometry": { "type": "Point", "coordinates": [ 35.3318619453, 32.1178976261 ] } },
{ "type": "Feature", "properties": { "Name": "Jurish/Qusra Agriculture earth mound", "District": "Nablus", "Type": "earthmound" }, "geometry": { "type": "Point", "coordinates": [ 35.3338407572, 32.1157104657 ] } },
{ "type": "Feature", "properties": { "Name": "Aqraba/Jurish agriculture earthmound", "District": "Nablus", "Type": "earthmound" }, "geometry": { "type": "Point", "coordinates": [ 35.3336130594, 32.1161539393 ] } },
{ "type": "Feature", "properties": { "Name": "Azzeh Family RB", "District": "Hebron", "Type": "road block" }, "geometry": { "type": "Point", "coordinates": [ 35.10161, 31.5253603088 ] } },
{ "type": "Feature", "properties": { "Name": "Tal Rumeida. Abu Hikal family RB.1", "District": "Hebron", "Type": "road block" }, "geometry": { "type": "Point", "coordinates": [ 35.101658176, 31.5246830166 ] } },
{ "type": "Feature", "properties": { "Name": "Tal Rumeida. Abu Hikal family RB.2", "District": "Hebron", "Type": "road block" }, "geometry": { "type": "Point", "coordinates": [ 35.1013841366, 31.5245684386 ] } },
{ "type": "Feature", "properties": { "Name": "Tal Rumeida Fens", "District": "Hebron", "Type": "road block" }, "geometry": { "type": "Point", "coordinates": [ 35.0986650099, 31.5257603188 ] } },
{ "type": "Feature", "properties": { "Name": "Izbat Abu Adam 2", "District": "Salfit", "Type": "road block" }, "geometry": { "type": "Point", "coordinates": [ 35.1421922722, 32.1089855999 ] } },
{ "type": "Feature", "properties": { "Name": "Izbat Abu Adam - Haris Road 5", "District": "Salfit", "Type": "road block" }, "geometry": { "type": "Point", "coordinates": [ 35.139644528, 32.1088904984 ] } },
{ "type": "Feature", "properties": { "Name": "Qalqiliya-Road 55", "District": "Qalqiliya", "Type": "partial checkpoint" }, "geometry": { "type": "Point", "coordinates": [ 35.0068232267, 32.1866852926 ] } },
{ "type": "Feature", "properties": { "Name": "Haris-Deir Istiya/Agricultural lands", "District": "Salfit", "Type": "earthmound" }, "geometry": { "type": "Point", "coordinates": [ 35.1347976924, 32.1179183528 ] } },
{ "type": "Feature", "properties": { "Name": "Deir Istiya Agri land", "District": "Salfit", "Type": "earthmound" }, "geometry": { "type": "Point", "coordinates": [ 35.1361846186, 32.1370139534 ] } },
{ "type": "Feature", "properties": { "Name": "Immatin entrance - PCP ", "District": "Qalqiliya", "Type": "partial checkpoint" }, "geometry": { "type": "Point", "coordinates": [ 35.1462584923, 32.1960097683 ] } },
{ "type": "Feature", "properties": { "Name": "Immatin road 55", "District": "Qalqiliya", "Type": "earthmound" }, "geometry": { "type": "Point", "coordinates": [ 35.1553676514, 32.2037103 ] } },
{ "type": "Feature", "properties": { "Name": "Ein Yabroud North 60 Road ", "District": "Ramallah", "Type": "earthmound" }, "geometry": { "type": "Point", "coordinates": [ 35.2560943836, 31.9530892167 ] } },
{ "type": "Feature", "properties": { "Name": "Beitillu partial checkpoint", "District": "Ramallah", "Type": "partial checkpoint" }, "geometry": { "type": "Point", "coordinates": [ 35.1182765734, 31.978974936 ] } },
{ "type": "Feature", "properties": { "Name": "As sawyeh entr", "District": "Nablus", "Type": "partial checkpoint" }, "geometry": { "type": "Point", "coordinates": [ 35.2645053519, 32.0876813421 ] } },
{ "type": "Feature", "properties": { "Name": "Luban", "District": "Nablus", "Type": "partial checkpoint" }, "geometry": { "type": "Point", "coordinates": [ 35.2460496484, 32.0723414524 ] } },
{ "type": "Feature", "properties": { "Name": "Luban agr entrance", "District": "Nablus", "Type": "earthmound" }, "geometry": { "type": "Point", "coordinates": [ 35.2466268607, 32.063738267 ] } },
{ "type": "Feature", "properties": { "Name": "Salfit-Ariel North", "District": "Salfit", "Type": "road block" }, "geometry": { "type": "Point", "coordinates": [ 35.1715582361, 32.1104992777 ] } },
{ "type": "Feature", "properties": { "Name": "Laban 2 rb", "District": "Nablus", "Type": "road block" }, "geometry": { "type": "Point", "coordinates": [ 35.2465519577, 32.0632040141 ] } },
{ "type": "Feature", "properties": { "Name": "Lubban3", "District": "Nablus", "Type": "road block" }, "geometry": { "type": "Point", "coordinates": [ 35.2467760392, 32.0664280322 ] } },
{ "type": "Feature", "properties": { "Name": "Kafr ad Dik - Northeast 1", "District": "Salfit", "Type": "road block" }, "geometry": { "type": "Point", "coordinates": [ 35.0868787274, 32.0760843985 ] } },
{ "type": "Feature", "properties": { "Name": "Yatma", "District": "Nablus", "Type": "partial checkpoint" }, "geometry": { "type": "Point", "coordinates": [ 35.2652634267, 32.0865298363 ] } },
{ "type": "Feature", "properties": { "Name": "Jurish em", "District": "Nablus", "Type": "earthmound" }, "geometry": { "type": "Point", "coordinates": [ 35.3450142047, 32.0966563354 ] } },
{ "type": "Feature", "properties": { "Name": "Jurish/Qusra road block 2", "District": "Nablus", "Type": "road block" }, "geometry": { "type": "Point", "coordinates": [ 35.3467370625, 32.0953120745 ] } },
{ "type": "Feature", "properties": { "Name": "Jurish- Qusra road block", "District": "Nablus", "Type": "road block" }, "geometry": { "type": "Point", "coordinates": [ 35.3466156623, 32.0956013701 ] } },
{ "type": "Feature", "properties": { "Name": "Qusra-Jurish agricultural lands road block ", "District": "Nablus", "Type": "road block" }, "geometry": { "type": "Point", "coordinates": [ 35.3469562651, 32.0949750669 ] } },
{ "type": "Feature", "properties": { "Name": "Duma entrance PcP", "District": "Nablus", "Type": "partial checkpoint" }, "geometry": { "type": "Point", "coordinates": [ 35.3556135615, 32.0649158654 ] } },
{ "type": "Feature", "properties": { "Name": "Burqa PCP", "District": "Nablus", "Type": "partial checkpoint" }, "geometry": { "type": "Point", "coordinates": [ 35.1819033508, 32.2856832645 ] } },
{ "type": "Feature", "properties": { "Name": "Al Fayha’a School RB", "District": "Hebron", "Type": "road block" }, "geometry": { "type": "Point", "coordinates": [ 35.1100381201, 31.5225664693 ] } },
{ "type": "Feature", "properties": { "Name": "Bab Al Khan RB", "District": "Hebron", "Type": "road block" }, "geometry": { "type": "Point", "coordinates": [ 35.1083329203, 31.5238198697 ] } },
{ "type": "Feature", "properties": { "Name": "Abu Shamsiyeh RB ", "District": "Hebron", "Type": "road block" }, "geometry": { "type": "Point", "coordinates": [ 35.1012305103, 31.5260027702 ] } },
{ "type": "Feature", "properties": { "Name": "Massafer Yatta/Shib al Butum EM", "District": "Hebron", "Type": "earthmound" }, "geometry": { "type": "Point", "coordinates": [ 35.1604600004, 31.3815500001 ] } },
{ "type": "Feature", "properties": { "Name": "Mantiqat Shib al Butum RB", "District": "Hebron", "Type": "road block" }, "geometry": { "type": "Point", "coordinates": [ 35.1303166199, 31.4020600951 ] } },
{ "type": "Feature", "properties": { "Name": "Ma’in EM", "District": "Hebron", "Type": "earthmound" }, "geometry": { "type": "Point", "coordinates": [ 35.1301727083, 31.4023724949 ] } },
{ "type": "Feature", "properties": { "Name": "Ma’in/RD 317 EM 2", "District": "Hebron", "Type": "earthmound" }, "geometry": { "type": "Point", "coordinates": [ 35.1261354755, 31.4002518596 ] } },
{ "type": "Feature", "properties": { "Name": "Maghayir ad Deir RB", "District": "Ramallah", "Type": "road block" }, "geometry": { "type": "Point", "coordinates": [ 35.3147567719, 31.8924971997 ] } },
{ "type": "Feature", "properties": { "Name": "Zif/RD 356 EM (2)", "District": "Hebron", "Type": "earthmound" }, "geometry": { "type": "Point", "coordinates": [ 35.1361596587, 31.4788689663 ] } },
{ "type": "Feature", "properties": { "Name": "Al Mu'arrajat East RB", "District": "Jericho", "Type": "road block" }, "geometry": { "type": "Point", "coordinates": [ 35.4171667668, 31.9250925666 ] } },
{ "type": "Feature", "properties": { "Name": "Al Khan Al Ahmar road block", "District": "Jerusalem", "Type": "road block" }, "geometry": { "type": "Point", "coordinates": [ 35.3417034307, 31.8128299651 ] } },
{ "type": "Feature", "properties": { "Name": "Al Hathroura new", "District": "Jericho", "Type": "road block" }, "geometry": { "type": "Point", "coordinates": [ 35.3893552104, 31.8242417924 ] } },
{ "type": "Feature", "properties": { "Name": "An Nabi Musa new road block", "District": "Jericho", "Type": "road block" }, "geometry": { "type": "Point", "coordinates": [ 35.4071894463, 31.7729222454 ] } },
{ "type": "Feature", "properties": { "Name": "Vegetables Market RB", "District": "Hebron", "Type": "road block" }, "geometry": { "type": "Point", "coordinates": [ 35.1070150006, 31.523182 ] } },
{ "type": "Feature", "properties": { "Name": "Khozoq Al Far RB", "District": "Hebron", "Type": "road block" }, "geometry": { "type": "Point", "coordinates": [ 35.1068560007, 31.5244680001 ] } },
{ "type": "Feature", "properties": { "Name": "Al Hammam RB", "District": "Hebron", "Type": "road block" }, "geometry": { "type": "Point", "coordinates": [ 35.1081240004, 31.5245110005 ] } },
{ "type": "Feature", "properties": { "Name": "Bani Dar RB.2", "District": "Hebron", "Type": "road block" }, "geometry": { "type": "Point", "coordinates": [ 35.1089230006, 31.5244899997 ] } },
{ "type": "Feature", "properties": { "Name": "Duma West EM 1", "District": "Nablus", "Type": "earthmound" }, "geometry": { "type": "Point", "coordinates": [ 35.3535599167, 32.0603340838 ] } },
{ "type": "Feature", "properties": { "Name": "Duma West EM 2", "District": "Nablus", "Type": "earthmound" }, "geometry": { "type": "Point", "coordinates": [ 35.3535263668, 32.0598173334 ] } },
{ "type": "Feature", "properties": { "Name": "Duma West EM 3", "District": "Nablus", "Type": "earthmound" }, "geometry": { "type": "Point", "coordinates": [ 35.3534922426, 32.0598182343 ] } },
{ "type": "Feature", "properties": { "Name": "Majdal Bani Fadil EM", "District": "Nablus", "Type": "earthmound" }, "geometry": { "type": "Point", "coordinates": [ 35.3582402668, 32.073251869 ] } },
{ "type": "Feature", "properties": { "Name": "Al Mughayyir North East EM ", "District": "Ramallah", "Type": "earthmound" }, "geometry": { "type": "Point", "coordinates": [ 35.3490452833, 32.0299879689 ] } },
{ "type": "Feature", "properties": { "Name": "Kafr Malik South EM", "District": "Ramallah", "Type": "earthmound" }, "geometry": { "type": "Point", "coordinates": [ 35.3361117674, 31.9490928999 ] } },
{ "type": "Feature", "properties": { "Name": "Burqa South East EM", "District": "Ramallah", "Type": "earthmound" }, "geometry": { "type": "Point", "coordinates": [ 35.2722522203, 31.8934091686 ] } },
{ "type": "Feature", "properties": { "Name": "Khirbet Ar Ratheem/RD 317 EM", "District": "Hebron", "Type": "earthmound" }, "geometry": { "type": "Point", "coordinates": [ 35.0270303732, 31.3756289727 ] } },
{ "type": "Feature", "properties": { "Name": "As Samu/RD 317 EM", "District": "Hebron", "Type": "earthmound" }, "geometry": { "type": "Point", "coordinates": [ 35.0210625823, 31.3752764181 ] } },
{ "type": "Feature", "properties": { "Name": "Wadi Al Nassara PCP.1", "District": "Hebron", "Type": "partial checkpoint" }, "geometry": { "type": "Point", "coordinates": [ 35.1146542532, 31.5244645775 ] } },
{ "type": "Feature", "properties": { "Name": "Wadi Al Nassara PCP.3", "District": "Hebron", "Type": "partial checkpoint" }, "geometry": { "type": "Point", "coordinates": [ 35.1153946004, 31.5247837003 ] } },
{ "type": "Feature", "properties": { "Name": "Wadi Al Nassara PCP.2", "District": "Hebron", "Type": "partial checkpoint" }, "geometry": { "type": "Point", "coordinates": [ 35.1147415002, 31.5247641999 ] } },
{ "type": "Feature", "properties": { "Name": "Road Block Next to Rajabi Building ", "District": "Hebron", "Type": "road block" }, "geometry": { "type": "Point", "coordinates": [ 35.1133, 31.5263099993 ] } },
{ "type": "Feature", "properties": { "Name": "Beit Fajjar PCP", "District": "Bethlehem", "Type": "partial checkpoint" }, "geometry": { "type": "Point", "coordinates": [ 35.139680709, 31.6356014115 ] } },
{ "type": "Feature", "properties": { "Name": "Al Saraya KG RB", "District": "Hebron", "Type": "road block" }, "geometry": { "type": "Point", "coordinates": [ 35.1114, 31.5243200004 ] } },
{ "type": "Feature", "properties": { "Name": "Hebron City PCP", "District": "Hebron", "Type": "partial checkpoint" }, "geometry": { "type": "Point", "coordinates": [ 35.1035097759, 31.5625443693 ] } },
{ "type": "Feature", "properties": { "Name": "Bani Naim PCP", "District": "Hebron", "Type": "partial checkpoint" }, "geometry": { "type": "Point", "coordinates": [ 35.1565139461, 31.5019016528 ] } },
{ "type": "Feature", "properties": { "Name": "Bani Naim EM (Opposite to Peni Haver)", "District": "Hebron", "Type": "earthmound" }, "geometry": { "type": "Point", "coordinates": [ 35.1685791088, 31.4944640962 ] } },
{ "type": "Feature", "properties": { "Name": "New closure- Wadi Al lamon agricultural road to 463 ", "District": "Ramallah", "Type": "earthmound" }, "geometry": { "type": "Point", "coordinates": [ 35.1015142774, 31.9456884684 ] } },
{ "type": "Feature", "properties": { "Name": "Al Krimzan PCP", "District": "Bethlehem", "Type": "partial checkpoint" }, "geometry": { "type": "Point", "coordinates": [ 35.1804863566, 31.7210798709 ] } },
{ "type": "Feature", "properties": { "Name": "Ya’bad entrance to 585 road", "District": "Jenin", "Type": "partial checkpoint" }, "geometry": { "type": "Point", "coordinates": [ 35.1870136187, 32.4344699634 ] } },
{ "type": "Feature", "properties": { "Name": "Yabad road 585 mid way", "District": "Jenin", "Type": "partial checkpoint" }, "geometry": { "type": "Point", "coordinates": [ 35.1576630223, 32.434248478 ] } },
{ "type": "Feature", "properties": { "Name": "Yabad/Imreiha PcP -midway to road 585", "District": "Jenin", "Type": "partial checkpoint" }, "geometry": { "type": "Point", "coordinates": [ 35.1485296462, 32.4340879131 ] } },
{ "type": "Feature", "properties": { "Name": "Imreiha agricultural lands", "District": "Jenin", "Type": "earthmound" }, "geometry": { "type": "Point", "coordinates": [ 35.1414172999, 32.4348021116 ] } },
{ "type": "Feature", "properties": { "Name": "Salem pcp", "District": "Jenin", "Type": "partial checkpoint" }, "geometry": { "type": "Point", "coordinates": [ 35.2134031788, 32.540267105 ] } },
{ "type": "Feature", "properties": { "Name": "Burqa earth mound", "District": "Nablus", "Type": "earthmound" }, "geometry": { "type": "Point", "coordinates": [ 35.1848869398, 32.2888484088 ] } },
{ "type": "Feature", "properties": { "Name": "Masudiya PcP", "District": "Nablus", "Type": "partial checkpoint" }, "geometry": { "type": "Point", "coordinates": [ 35.1814890855, 32.282918445 ] } },
{ "type": "Feature", "properties": { "Name": "Masudiya- Sabastiya earth-mound", "District": "Nablus", "Type": "earthmound" }, "geometry": { "type": "Point", "coordinates": [ 35.1819219451, 32.283208045 ] } },
{ "type": "Feature", "properties": { "Name": "Beita-Osarin road block at road 505", "District": "Nablus", "Type": "road block" }, "geometry": { "type": "Point", "coordinates": [ 35.2918501447, 32.1195171896 ] } },
{ "type": "Feature", "properties": { "Name": "Beita observation PCP at road 505", "District": "Nablus", "Type": "partial checkpoint" }, "geometry": { "type": "Point", "coordinates": [ 35.282888449, 32.1200588178 ] } },
{ "type": "Feature", "properties": { "Name": "Beita agricultural lands em", "District": "Nablus", "Type": "earthmound" }, "geometry": { "type": "Point", "coordinates": [ 35.2828488642, 32.1206258518 ] } },
{ "type": "Feature", "properties": { "Name": "Huwwara PcP6 near beita circle", "District": "Nablus", "Type": "partial checkpoint" }, "geometry": { "type": "Point", "coordinates": [ 35.2580364255, 32.1394886489 ] } },
{ "type": "Feature", "properties": { "Name": "Huwwara main road PcP5", "District": "Nablus", "Type": "partial checkpoint" }, "geometry": { "type": "Point", "coordinates": [ 35.2581633782, 32.1444769738 ] } },
{ "type": "Feature", "properties": { "Name": "Huwwara main road PcP4", "District": "Nablus", "Type": "partial checkpoint" }, "geometry": { "type": "Point", "coordinates": [ 35.2580144548, 32.1466276583 ] } },
{ "type": "Feature", "properties": { "Name": "Huwwara main road PcP3", "District": "Nablus", "Type": "partial checkpoint" }, "geometry": { "type": "Point", "coordinates": [ 35.2579545374, 32.1485993506 ] } },
{ "type": "Feature", "properties": { "Name": "Huwwara main road PcP2", "District": "Nablus", "Type": "partial checkpoint" }, "geometry": { "type": "Point", "coordinates": [ 35.2585692907, 32.151403701 ] } },
{ "type": "Feature", "properties": { "Name": "Huwwara main road PcP1", "District": "Nablus", "Type": "partial checkpoint" }, "geometry": { "type": "Point", "coordinates": [ 35.2596240172, 32.1557385372 ] } },
{ "type": "Feature", "properties": { "Name": "Hizma partial Checkpoint 1", "District": "Jerusalem", "Type": "partial checkpoint" }, "geometry": { "type": "Point", "coordinates": [ 35.2557564387, 31.8294738885 ] } },
{ "type": "Feature", "properties": { "Name": "Hizma partial Checkpoint 2", "District": "Jerusalem", "Type": "partial checkpoint" }, "geometry": { "type": "Point", "coordinates": [ 35.251722563, 31.8319261699 ] } },
{ "type": "Feature", "properties": { "Name": "Beitin-Bet El Partial CP", "District": "Ramallah", "Type": "partial checkpoint" }, "geometry": { "type": "Point", "coordinates": [ 35.2286944914, 31.9252466497 ] } },
{ "type": "Feature", "properties": { "Name": "Tell-Jit pcp R60", "District": "Nablus", "Type": "partial checkpoint" }, "geometry": { "type": "Point", "coordinates": [ 35.2077927335, 32.190297567 ] } },
{ "type": "Feature", "properties": { "Name": "Beita South internal road em", "District": "Nablus", "Type": "earthmound" }, "geometry": { "type": "Point", "coordinates": [ 35.2797609063, 32.1212064621 ] } },
{ "type": "Feature", "properties": { "Name": "Beita southeast internal road em", "District": "Nablus", "Type": "earthmound" }, "geometry": { "type": "Point", "coordinates": [ 35.2826424136, 32.1212889936 ] } },
{ "type": "Feature", "properties": { "Name": "Beita southeast em2", "District": "Nablus", "Type": "earthmound" }, "geometry": { "type": "Point", "coordinates": [ 35.2843749335, 32.1237529954 ] } },
{ "type": "Feature", "properties": { "Name": "Husan PCP 2", "District": "Bethlehem", "Type": "partial checkpoint" }, "geometry": { "type": "Point", "coordinates": [ 35.147201999, 31.7082359997 ] } },
{ "type": "Feature", "properties": { "Name": "New roadblock near Jaba' CP ", "District": "Jerusalem", "Type": "road block" }, "geometry": { "type": "Point", "coordinates": [ 35.2564231178, 31.8535958597 ] } },
{ "type": "Feature", "properties": { "Name": "Khirbet Atuf Road 458", "District": "Tubas", "Type": "road block" }, "geometry": { "type": "Point", "coordinates": [ 35.4486719999, 32.2471589997 ] } },
{ "type": "Feature", "properties": { "Name": "Surif-Al Jab'a EM", "District": "Bethlehem", "Type": "earthmound" }, "geometry": { "type": "Point", "coordinates": [ 35.0738212407, 31.6685816831 ] } },
{ "type": "Feature", "properties": { "Name": "Beit Awwa/Tawas PCP", "District": "Hebron", "Type": "partial checkpoint" }, "geometry": { "type": "Point", "coordinates": [ 34.9612480603, 31.4971189595 ] } },
{ "type": "Feature", "properties": { "Name": "Sa'ir/Road 60 PCP", "District": "Hebron", "Type": "partial checkpoint" }, "geometry": { "type": "Point", "coordinates": [ 35.1274554536, 31.5777722813 ] } },
{ "type": "Feature", "properties": { "Name": "At Tira RB", "District": "Ramallah", "Type": "road block" }, "geometry": { "type": "Point", "coordinates": [ 35.1328482551, 31.8720300357 ] } },
{ "type": "Feature", "properties": { "Name": "Abud Entrance PCP", "District": "Ramallah", "Type": "partial checkpoint" }, "geometry": { "type": "Point", "coordinates": [ 35.0781512733, 32.0126230971 ] } },
{ "type": "Feature", "properties": { "Name": "Deir Nidham PCP", "District": "Ramallah", "Type": "partial checkpoint" }, "geometry": { "type": "Point", "coordinates": [ 35.1082622981, 32.0071802688 ] } },
{ "type": "Feature", "properties": { "Name": "Ni'lin Entrance PCP", "District": "Ramallah", "Type": "partial checkpoint" }, "geometry": { "type": "Point", "coordinates": [ 35.031000219, 31.9443239079 ] } },
{ "type": "Feature", "properties": { "Name": "An Nabi Saleh PCP", "District": "Ramallah", "Type": "partial checkpoint" }, "geometry": { "type": "Point", "coordinates": [ 35.1287104209, 32.013676446 ] } },
{ "type": "Feature", "properties": { "Name": "Ein Siniya", "District": "Ramallah", "Type": "partial checkpoint" }, "geometry": { "type": "Point", "coordinates": [ 35.228, 31.9889546999 ] } },
{ "type": "Feature", "properties": { "Name": "Ein Yabrud - Silwad", "District": "Ramallah", "Type": "partial checkpoint" }, "geometry": { "type": "Point", "coordinates": [ 35.26, 31.9599699998 ] } },
{ "type": "Feature", "properties": { "Name": null, "District": "Nablus", "Type": "earthmound" }, "geometry": { "type": "Point", "coordinates": [ 35.397, 32.1882289996 ] } },
{ "type": "Feature", "properties": { "Name": null, "District": "Nablus", "Type": "earthmound" }, "geometry": { "type": "Point", "coordinates": [ 35.401, 32.1852979997 ] } }
]
}
