{
  "version": 0.6,
  "generator": "Overpass API 0.7.62.10 2d4cfc48",
  "osm3s": {
    "timestamp_osm_base": "2026-01-31T22:32:32Z",
    "copyright": "The data included in this document is from www.openstreetmap.org. The data is made available under ODbL."
  },
  "elements": [

{
  "type": "node",
  "id": 4068084765,
  "lat": -1.8756445,
  "lon": 136.2329157,
  "tags": {
    "description": "Komando Distrik Militer 1709/ Yawa (Yapen Waropen)",
    "military": "range",
    "name": "Kodim 1709/Yapen Waropen"
  }
},
{
  "type": "node",
  "id": 4479450643,
  "lat": -3.6954335,
  "lon": 137.9667129,
  "tags": {
    "ford": "yes",
    "military": "danger_area"
  }
},
{
  "type": "node",
  "id": 5765678045,
  "lat": -3.6665615,
  "lon": 133.7644271,
  "tags": {
    "landuse": "military",
    "military": "office",
    "name": "KODIM"
  }
},
{
  "type": "node",
  "id": 6683938107,
  "lat": -2.6062761,
  "lon": 140.6538698,
  "tags": {
    "military": "office",
    "name": "Komando Resor militar"
  }
},
{
  "type": "node",
  "id": 11197205533,
  "lat": -1.1638889,
  "lon": 136.0919859,
  "tags": {
    "landuse": "military",
    "military": "base",
    "military_service": "air_force",
    "name": "KOSEK HANUDNAS IV Biak"
  }
},
{
  "type": "node",
  "id": 11197205974,
  "lat": -1.1676021,
  "lon": 136.0776858,
  "tags": {
    "landuse": "military",
    "military": "base",
    "military_service": "air_force",
    "name": "KOOPS AU WILAYAH III"
  }
},
{
  "type": "way",
  "id": 184111652,
  "nodes": [
    1945658373,
    1945658387,
    1945658391,
    1945658380,
    1945658373
  ],
  "tags": {
    "landuse": "military",
    "name": "SUB Den PM AD"
  }
},
{
  "type": "way",
  "id": 187131672,
  "nodes": [
    1978811380,
    1978811382,
    1978811383,
    1978811381,
    1978811380
  ],
  "tags": {
    "landuse": "military",
    "name": "Lapangan Tembak Bhayangkara"
  }
},
{
  "type": "way",
  "id": 201075079,
  "nodes": [
    2110325202,
    2110325217,
    2110325228,
    2110325209,
    2110325202
  ],
  "tags": {
    "building": "yes",
    "military": "barracks"
  }
},
{
  "type": "way",
  "id": 508024057,
  "nodes": [
    4974187364,
    13028659431,
    13028659430,
    4974187363,
    4974187362,
    13028659434,
    13028659435,
    13028659436,
    13028659437,
    13028659438,
    13028659439,
    4974187361,
    13028659433,
    13028659432,
    4974187364
  ],
  "tags": {
    "addr:full": "Jl. Selat Bali",
    "building": "yes",
    "landuse": "military",
    "military": "range",
    "name": "Koramil"
  }
},
{
  "type": "way",
  "id": 508024058,
  "nodes": [
    4974187368,
    4974187367,
    4974187366,
    13028659441,
    13028659442,
    13028659443,
    13028659440,
    4974187365,
    4974187368
  ],
  "tags": {
    "addr:full": "Jl. Selat Bali",
    "building": "yes",
    "landuse": "military",
    "military": "range",
    "name": "Koramil"
  }
},
{
  "type": "way",
  "id": 530185573,
  "nodes": [
    5149014065,
    5149014062,
    5149014063,
    5149014064,
    5149014065
  ],
  "tags": {
    "addr:full": "Jl Sorong Aimas RT 3/RW 2",
    "building": "yes",
    "military": "range",
    "name": "Kantor Marinir Yonmarhanlan Lantamal XIV"
  }
},
{
  "type": "way",
  "id": 540365608,
  "nodes": [
    5227755419,
    5227755418,
    5227755417,
    5227755416,
    5227755419
  ],
  "tags": {
    "landuse": "military",
    "name": "Polsek Kemtuk"
  }
},
{
  "type": "way",
  "id": 569738957,
  "nodes": [
    5478741694,
    6235664072,
    6235664071,
    5478741693,
    6235664031,
    5478741692,
    6235664033,
    4232412195,
    4232412215,
    6235664035,
    6235664037,
    6235664041,
    6235664038,
    6235664039,
    6235664040,
    6235664036,
    6235664034,
    4232412221,
    6235664062,
    4232412202,
    4232412212,
    6235664042,
    6235664043,
    3012910466,
    6235664032,
    6235664030,
    5146519994,
    5146519995,
    6235664045,
    6235664044,
    5478741694
  ],
  "tags": {
    "landuse": "military",
    "military": "naval_base",
    "name": "Navy"
  }
},
{
  "type": "way",
  "id": 570449215,
  "nodes": [
    5484326663,
    8328139450,
    8328139451,
    8328139452,
    5484326662,
    8328139449,
    8328139448,
    8328139447,
    5484326661,
    5484326660,
    5484326659,
    5484326663
  ],
  "tags": {
    "fixme": "rough estimation, real extend needs to be fixed",
    "landuse": "military",
    "name": "Polisi Militer",
    "name:en": "Military Police"
  }
},
{
  "type": "way",
  "id": 584068526,
  "nodes": [
    5583539356,
    5583539357,
    5583539358,
    5583539359,
    5583539360,
    5583539361,
    5583539362,
    5583539363,
    5583539364,
    13127040516,
    5583539365,
    5583539366,
    5583539367,
    5583539368,
    7221564345,
    7221564344,
    5583539369,
    6317377953,
    6317377952,
    6317377974,
    5583539356
  ],
  "tags": {
    "landuse": "military",
    "name": "Yonif 756"
  }
},
{
  "type": "way",
  "id": 585487531,
  "nodes": [
    5594979213,
    5594979214,
    13448598699,
    5591834520,
    5594979215,
    5591834521,
    5591834449,
    5594979216,
    5594979217,
    5594979218,
    5594979219,
    13446313601,
    5594979213
  ],
  "tags": {
    "addr:city": "Wamena",
    "addr:housenumber": "53",
    "addr:street": "Jalan Yos Sudarso",
    "landuse": "military",
    "name": "Kodim 1702 Jayawijaya"
  }
},
{
  "type": "way",
  "id": 594827318,
  "nodes": [
    5671193882,
    5671193883,
    5671193884,
    5671193885,
    5671193886,
    5671193887,
    5671193888,
    5671193889,
    5671193890,
    5671193891,
    5671193892,
    5671193893,
    5671193882
  ],
  "tags": {
    "landuse": "military",
    "name": "Yonif 751"
  }
},
{
  "type": "way",
  "id": 606058998,
  "nodes": [
    5747040904,
    5747040905,
    5747040906,
    5747040907,
    5747040904
  ],
  "tags": {
    "landuse": "military",
    "name": "Komtar",
    "source": "survey"
  }
},
{
  "type": "way",
  "id": 622499064,
  "nodes": [
    5880086662,
    5880086659,
    5880086660,
    5880086661,
    5880086662
  ],
  "tags": {
    "landuse": "military"
  }
},
{
  "type": "way",
  "id": 629968704,
  "nodes": [
    5949179720,
    10781920175,
    5949179719,
    5949179718,
    5949179717,
    5949179716,
    5949179715,
    5949179714,
    5949179713,
    5949179712,
    5949179711,
    5949179710,
    5949179709,
    5949179708,
    5949179707,
    5949179706,
    6172855268,
    5949179705,
    5949179704,
    6185383864,
    5949179703,
    6185383865,
    5949179720
  ],
  "tags": {
    "landuse": "military",
    "name": "POLRES FAKFAK"
  }
},
{
  "type": "way",
  "id": 659304749,
  "nodes": [
    6172855473,
    10815751056,
    10815751055,
    6172855471,
    6172855470,
    6172855469,
    6172855467,
    6172855473
  ],
  "tags": {
    "landuse": "military",
    "name": "Kodim Wagom"
  }
},
{
  "type": "way",
  "id": 659368854,
  "nodes": [
    6173408749,
    6173408748,
    6173408747,
    6173408746,
    6173408745,
    6173408744,
    6173408743,
    6173408742,
    6173408741,
    6173408740,
    6173408739,
    6173408738,
    6173408737,
    6173408736,
    6173408735,
    6173408749
  ],
  "tags": {
    "amenity": "police",
    "landuse": "military",
    "name": "Kodim"
  }
},
{
  "type": "way",
  "id": 696279630,
  "nodes": [
    6538615085,
    6538615086,
    6538615087,
    6538615088,
    6538615089,
    6538615090,
    6538615091,
    6538615092,
    6538615093,
    6538615094,
    6538615095,
    6538615096,
    6538615097,
    6538615098,
    6538615099,
    6538615100,
    6538615085
  ],
  "tags": {
    "landuse": "military",
    "military": "training_area"
  }
},
{
  "type": "way",
  "id": 816524896,
  "nodes": [
    7626093081,
    7626093082,
    7626093083,
    7626093084,
    7626093081
  ],
  "tags": {
    "military": "checkpoint",
    "name": "entrence",
    "start_date": "04.00 - 22.00"
  }
},
{
  "type": "way",
  "id": 816524897,
  "nodes": [
    7626093085,
    7626093086,
    7626093087,
    7626093088,
    7626093085
  ],
  "tags": {
    "military": "checkpoint",
    "name": "entrance"
  }
},
{
  "type": "way",
  "id": 816556324,
  "nodes": [
    7626365096,
    7626365097,
    7626365098,
    7626365099,
    7626365096
  ],
  "tags": {
    "military": "checkpoint"
  }
},
{
  "type": "way",
  "id": 816556334,
  "nodes": [
    7626365155,
    7626365156,
    7626365157,
    7626365158,
    7626365155
  ],
  "tags": {
    "landuse": "military",
    "military": "range",
    "name": "skirmish games"
  }
},
{
  "type": "way",
  "id": 988963502,
  "nodes": [
    9140728035,
    9140728036,
    9140728037,
    9140728038,
    9140728035
  ],
  "tags": {
    "area": "yes",
    "landuse": "military",
    "name": "Danramil 1705-02/Enarotali"
  }
},
{
  "type": "way",
  "id": 989253544,
  "nodes": [
    9143442112,
    9143442113,
    9143442114,
    9143442115,
    9143442116,
    9143445217,
    9143445218,
    9143442112
  ],
  "tags": {
    "area": "yes",
    "landuse": "military",
    "name": "BRIMOB Enarotali"
  }
},
{
  "type": "way",
  "id": 989802676,
  "nodes": [
    9147436889,
    9147436890,
    9147436891,
    9147436892,
    9147436893,
    9147436894,
    9147436889
  ],
  "tags": {
    "landuse": "military",
    "name": "Koramil Komopa"
  }
},
{
  "type": "way",
  "id": 1094565350,
  "nodes": [
    10024953351,
    10302226318,
    10024953350,
    10024953349,
    10024953348,
    10024953347,
    10024953346,
    10302226329,
    1042092729,
    10024953345,
    10024953344,
    10024953343,
    10024953342,
    10024953341,
    10302226319,
    10024953340,
    10024953339,
    10024953338,
    10024953337,
    10024953336,
    10024953335,
    10024953334,
    10024953333,
    10024953332,
    10024953331,
    10024953330,
    10024953329,
    10024953328,
    10024953327,
    10024953326,
    10024953325,
    10024953324,
    10024953323,
    10024953322,
    10024953351
  ],
  "tags": {
    "aeroway": "aerodrome",
    "ele": "3",
    "icao": "WAPL",
    "landuse": "military",
    "military": "airfield",
    "name": "Pangkalan Udara Dominicus Dumatubun",
    "note": "closed 2014",
    "short_name": "Lanud Dominicus Dumatubun",
    "source": "ourairports.com",
    "wikidata": "Q1331016",
    "wikipedia": "id:Pangkalan TNI Angkatan Udara Dominicus Dumatubun"
  }
},
{
  "type": "way",
  "id": 1121717384,
  "nodes": [
    10259648418,
    10259648413,
    10259648416,
    10259648424,
    10259648414,
    10259648419,
    10259648421,
    10259648415,
    10259648417,
    10259648422,
    10259648412,
    10259648420,
    10259648423,
    10259648418
  ],
  "tags": {
    "landuse": "military",
    "name": "Brigade Infanteri 20",
    "short_name": "Brigif 20",
    "wikidata": "Q12477263",
    "wikipedia": "id:Brigade Infanteri 20"
  }
},
{
  "type": "way",
  "id": 1149028921,
  "nodes": [
    10689739650,
    10689739651,
    10689739652,
    10689739653,
    10689739654,
    10689739655,
    10689739656,
    10689739657,
    10689739658,
    10689739659,
    10689739660,
    10689739661,
    10689739662,
    10689739663,
    1704661584,
    10689739664,
    7010118743,
    10689739665,
    10689739666,
    10689739667,
    10689739668,
    2068645383,
    1696749379,
    10689739669,
    10689739670,
    10689739671,
    10689739650
  ],
  "tags": {
    "landuse": "military",
    "name": "Angkatan Laut"
  }
},
{
  "type": "way",
  "id": 1158702705,
  "nodes": [
    10775566052,
    10775566051,
    10775566050,
    10775566049,
    10775566048,
    10775566052
  ],
  "tags": {
    "amenity": "police",
    "landuse": "military",
    "name": "Komando Rezim Militer 182"
  }
},
{
  "type": "way",
  "id": 1271382774,
  "nodes": [
    11806581196,
    12684663170,
    12684663167,
    12684663171,
    12684663172,
    12684663173,
    12684663174,
    12684663175,
    12684663176,
    11806581195,
    11806581194,
    11806581197,
    11806581196
  ],
  "tags": {
    "landuse": "military",
    "military_service": "air_force"
  }
},
{
  "type": "way",
  "id": 1349711849,
  "nodes": [
    12485932910,
    12485932911,
    12485932912,
    12485932913,
    12485932914,
    12485932915,
    12485932916,
    12485932917,
    12485932910
  ],
  "tags": {
    "landuse": "military",
    "military": "base",
    "military_service": "army",
    "name": "Detasemen Zeni Tempur 12",
    "official_name": "Detasemen Zeni Tempur 12/Oharo Hesowa Hubana",
    "short_name": "Denzipur 12/OHH",
    "wikidata": "Q25466959",
    "wikipedia": "id:Detasemen Zeni Tempur 12"
  }
},
{
  "type": "way",
  "id": 1349711850,
  "nodes": [
    12485932918,
    12485932919,
    12485932920,
    12485932921,
    12485932922,
    12485932923,
    12485932924,
    12485932925,
    12485932918
  ],
  "tags": {
    "landuse": "military",
    "military": "base",
    "military_service": "army",
    "name": "Komando Resor Militer 173",
    "official_name": "Komando Resor Militer 173/Praja Vira Braja",
    "short_name": "Korem 173/PVB",
    "wikidata": "Q25469059",
    "wikipedia": "id:Komando Resor Militer 173"
  }
},
{
  "type": "way",
  "id": 1349711851,
  "nodes": [
    12485932926,
    12485932927,
    12485932928,
    12485932929,
    12485932930,
    12485932931,
    12485932932,
    12485932933,
    12485932926
  ],
  "tags": {
    "landuse": "military",
    "military": "base",
    "military_service": "army",
    "name": "Komando Distrik Militer 1705",
    "official_name": "Komando Distrik Militer 1705/Nabire",
    "short_name": "Kodim 1705/NBR",
    "wikipedia": "id:Komando Distrik Militer 1705"
  }
},
{
  "type": "way",
  "id": 1349711852,
  "nodes": [
    12485932934,
    12485932935,
    12485932936,
    12485932937,
    12485932938,
    12485932939,
    12485932940,
    12485932941,
    12485932942,
    12485932934
  ],
  "tags": {
    "landuse": "military",
    "military": "barracks",
    "name": "Asrama Kodim 1705"
  }
},
{
  "type": "way",
  "id": 1369655227,
  "nodes": [
    12684662946,
    12684662945,
    12684662944,
    12684662943,
    12684662946
  ],
  "tags": {
    "landuse": "military",
    "military_service": "army",
    "name": "Koramil 1507-02/Saumlaki",
    "official_name": "Komando Rayon Militer 1507-02/Saumlaki"
  }
},
{
  "type": "way",
  "id": 1369655247,
  "nodes": [
    12684663236,
    12684663235,
    12684663234,
    12684663233,
    12684663232,
    12684663231,
    12684663230,
    12684663229,
    12684663228,
    12684663227,
    12684663226,
    12684663225,
    12684663224,
    12684663223,
    12684663236
  ],
  "tags": {
    "landuse": "military",
    "military_service": "air_force",
    "name": "Pangkalan Udara Ignatius Dewanto",
    "official_name": "Pangkalan Udara Tentara Nasional Indonesia Angkatan Udara Ignatius Dewanto",
    "short_name": "Lanud TNI AU Ignatius Dewanto"
  }
},
{
  "type": "way",
  "id": 1369655248,
  "nodes": [
    12684663248,
    12684663247,
    12684663246,
    12684663245,
    12684663244,
    12684663243,
    12684663242,
    12684663241,
    12684663240,
    12684663239,
    12684663238,
    12684663248
  ],
  "tags": {
    "landuse": "military",
    "military_service": "army",
    "name": "Batalyon Infanteri 734",
    "official_name": "Batalyon Infanteri 734/Satria Nusa Samudera",
    "short_name": "Yonif 734/SNS",
    "wikidata": "Q25466883",
    "wikipedia": "id:Batalyon Infanteri 734"
  }
},
{
  "type": "way",
  "id": 1369655250,
  "nodes": [
    12684663252,
    12684663260,
    12684663259,
    12684663258,
    12684663257,
    12684663256,
    12684663255,
    12684663254,
    12684663253,
    12684663252
  ],
  "tags": {
    "landuse": "military",
    "military_service": "air_force",
    "name": "Satuan Radar 245",
    "official_name": "Satuan Radar 245/Saumlaki",
    "short_name": "Satrad 245"
  }
},
{
  "type": "way",
  "id": 1369655261,
  "nodes": [
    12684663313,
    12684663312,
    12684663311,
    12684663310,
    12684663309,
    12684663308,
    12684663307,
    12684663306,
    12684663302,
    12684663305,
    8495825512,
    8495825511,
    8495825510,
    12684663325,
    12684663323,
    12684663324,
    12684663326,
    12684663327,
    3423441017,
    8495825509,
    3423441018,
    8495825508,
    3423441020,
    3423441019,
    8495842218,
    8495842217,
    8495825516,
    8495825515,
    12684663295,
    12684663294,
    12684663293,
    12684663292,
    12684663291,
    12684663290,
    12684663313
  ],
  "tags": {
    "landuse": "military",
    "military_service": "navy",
    "name": "Pangkalan TNI AL Saumlaki",
    "official_name": "Pangkalan Tentara Nasional Indonesia Angkatan Laut Saumlaki",
    "short_name": "Lanal Saumlaki"
  }
},
{
  "type": "way",
  "id": 1380176292,
  "nodes": [
    12777773343,
    12777773342,
    12777773341,
    12777773340,
    12777773339,
    12777773338,
    12777773337,
    12777773336,
    12777773335,
    12777773334,
    12777773333,
    12777773332,
    12777773331,
    12777773330,
    12777773329,
    12777773328,
    12777773327,
    12777773326,
    12777773325,
    12777773324,
    12777773323,
    12777773322,
    12777773321,
    12777773320,
    12777773319,
    12777773318,
    12777773317,
    12777773316,
    12777773315,
    12777773343
  ],
  "tags": {
    "landuse": "military",
    "name": "KODAM XVIII/ KASUARI"
  }
},
{
  "type": "way",
  "id": 1412810998,
  "nodes": [
    12983358960,
    12983358967,
    12983358966,
    12983358965,
    12983358964,
    12983358963,
    12983358962,
    12983358961,
    12952090100,
    12952176401,
    12952176402,
    12952176403,
    12952176404,
    12952176405,
    12983358960
  ],
  "tags": {
    "landuse": "military",
    "military": "barracks",
    "name": "Koramil 1707-01/Muting",
    "official_name": "Komando Rayon Militer 1707-01/Muting"
  }
},
{
  "type": "relation",
  "id": 7625980,
  "members": [
    {
      "type": "way",
      "ref": 529849994,
      "role": "outer"
    },
    {
      "type": "way",
      "ref": 506693443,
      "role": "inner"
    },
    {
      "type": "way",
      "ref": 505618394,
      "role": "inner"
    },
    {
      "type": "way",
      "ref": 508003366,
      "role": "inner"
    },
    {
      "type": "way",
      "ref": 506693449,
      "role": "inner"
    },
    {
      "type": "way",
      "ref": 506693450,
      "role": "inner"
    },
    {
      "type": "way",
      "ref": 506693451,
      "role": "inner"
    }
  ],
  "tags": {
    "landuse": "military",
    "military": "range",
    "name": "Kodim 1704 Kota Sorong",
    "type": "multipolygon"
  }
},
{
  "type": "relation",
  "id": 7626182,
  "members": [
    {
      "type": "way",
      "ref": 529875411,
      "role": "outer"
    },
    {
      "type": "way",
      "ref": 508002630,
      "role": "inner"
    },
    {
      "type": "way",
      "ref": 508002629,
      "role": "inner"
    }
  ],
  "tags": {
    "landuse": "military",
    "military": "range",
    "name": "Kantor Veteran TNI AD",
    "type": "multipolygon"
  }
},
{
  "type": "relation",
  "id": 7628750,
  "members": [
    {
      "type": "way",
      "ref": 530177968,
      "role": "outer"
    },
    {
      "type": "way",
      "ref": 510332356,
      "role": "inner"
    },
    {
      "type": "way",
      "ref": 511633087,
      "role": "inner"
    },
    {
      "type": "way",
      "ref": 511633091,
      "role": "inner"
    },
    {
      "type": "way",
      "ref": 511633089,
      "role": "inner"
    },
    {
      "type": "way",
      "ref": 511633093,
      "role": "inner"
    },
    {
      "type": "way",
      "ref": 511633095,
      "role": "inner"
    },
    {
      "type": "way",
      "ref": 511633097,
      "role": "inner"
    },
    {
      "type": "way",
      "ref": 511633099,
      "role": "inner"
    },
    {
      "type": "way",
      "ref": 511934649,
      "role": "inner"
    },
    {
      "type": "way",
      "ref": 511633103,
      "role": "inner"
    },
    {
      "type": "way",
      "ref": 511633101,
      "role": "inner"
    },
    {
      "type": "way",
      "ref": 511934650,
      "role": "inner"
    },
    {
      "type": "way",
      "ref": 510332377,
      "role": "inner"
    },
    {
      "type": "way",
      "ref": 510332378,
      "role": "inner"
    },
    {
      "type": "way",
      "ref": 510332375,
      "role": "inner"
    },
    {
      "type": "way",
      "ref": 510332376,
      "role": "inner"
    },
    {
      "type": "way",
      "ref": 510332373,
      "role": "inner"
    },
    {
      "type": "way",
      "ref": 510332374,
      "role": "inner"
    },
    {
      "type": "way",
      "ref": 510332372,
      "role": "inner"
    }
  ],
  "tags": {
    "landuse": "military",
    "military": "range",
    "name": "Batalion Yonif 752 TNI AD",
    "type": "multipolygon"
  }
},
{
  "type": "relation",
  "id": 15045318,
  "members": [
    {
      "type": "way",
      "ref": 1124698763,
      "role": "outer"
    },
    {
      "type": "way",
      "ref": 1125128604,
      "role": "inner"
    },
    {
      "type": "way",
      "ref": 562664219,
      "role": "inner"
    },
    {
      "type": "way",
      "ref": 562664248,
      "role": "inner"
    },
    {
      "type": "way",
      "ref": 562664227,
      "role": "inner"
    },
    {
      "type": "way",
      "ref": 562664247,
      "role": "inner"
    },
    {
      "type": "way",
      "ref": 756865217,
      "role": "inner"
    },
    {
      "type": "way",
      "ref": 562664225,
      "role": "inner"
    },
    {
      "type": "way",
      "ref": 562664242,
      "role": "inner"
    },
    {
      "type": "way",
      "ref": 562664212,
      "role": "inner"
    },
    {
      "type": "way",
      "ref": 562664245,
      "role": "inner"
    },
    {
      "type": "way",
      "ref": 756865223,
      "role": "outer"
    },
    {
      "type": "way",
      "ref": 562664223,
      "role": "inner"
    },
    {
      "type": "way",
      "ref": 497787068,
      "role": "inner"
    },
    {
      "type": "way",
      "ref": 562664252,
      "role": "inner"
    },
    {
      "type": "way",
      "ref": 1064858591,
      "role": "inner"
    },
    {
      "type": "way",
      "ref": 562664231,
      "role": "inner"
    },
    {
      "type": "way",
      "ref": 562664211,
      "role": "inner"
    },
    {
      "type": "way",
      "ref": 562664238,
      "role": "inner"
    },
    {
      "type": "way",
      "ref": 562664240,
      "role": "inner"
    },
    {
      "type": "way",
      "ref": 497787067,
      "role": "inner"
    },
    {
      "type": "way",
      "ref": 562664251,
      "role": "inner"
    },
    {
      "type": "way",
      "ref": 562664221,
      "role": "inner"
    },
    {
      "type": "way",
      "ref": 562664229,
      "role": "inner"
    },
    {
      "type": "way",
      "ref": 562664246,
      "role": "inner"
    },
    {
      "type": "way",
      "ref": 1125128605,
      "role": "inner"
    },
    {
      "type": "way",
      "ref": 497787065,
      "role": "inner"
    },
    {
      "type": "way",
      "ref": 562664249,
      "role": "inner"
    },
    {
      "type": "way",
      "ref": 562664235,
      "role": "inner"
    },
    {
      "type": "way",
      "ref": 562664244,
      "role": "inner"
    },
    {
      "type": "way",
      "ref": 562664210,
      "role": "inner"
    },
    {
      "type": "way",
      "ref": 562664233,
      "role": "inner"
    },
    {
      "type": "way",
      "ref": 562664243,
      "role": "inner"
    },
    {
      "type": "way",
      "ref": 1125128606,
      "role": "inner"
    },
    {
      "type": "way",
      "ref": 497787066,
      "role": "inner"
    },
    {
      "type": "way",
      "ref": 562664250,
      "role": "inner"
    },
    {
      "type": "way",
      "ref": 562664220,
      "role": "inner"
    },
    {
      "type": "way",
      "ref": 562664253,
      "role": "inner"
    },
    {
      "type": "way",
      "ref": 1125128585,
      "role": "inner"
    },
    {
      "type": "way",
      "ref": 1125128582,
      "role": "inner"
    },
    {
      "type": "way",
      "ref": 1125128590,
      "role": "inner"
    },
    {
      "type": "way",
      "ref": 1125128595,
      "role": "inner"
    },
    {
      "type": "way",
      "ref": 1155687676,
      "role": "inner"
    },
    {
      "type": "way",
      "ref": 1155687674,
      "role": "inner"
    },
    {
      "type": "way",
      "ref": 1155687675,
      "role": "inner"
    }
  ],
  "tags": {
    "landuse": "military",
    "name": "Komando Daerah XVII/Cenderawasih",
    "type": "multipolygon"
  }
},
{
  "type": "node",
  "id": 3423441017,
  "lat": -7.9935484,
  "lon": 131.2900704
},
{
  "type": "node",
  "id": 3423441018,
  "lat": -7.9930384,
  "lon": 131.2903547
},
{
  "type": "node",
  "id": 3423441019,
  "lat": -7.9936068,
  "lon": 131.2907034
},
{
  "type": "node",
  "id": 3423441020,
  "lat": -7.9929481,
  "lon": 131.2907892
},
{
  "type": "node",
  "id": 8495825508,
  "lat": -7.9928843,
  "lon": 131.2904620
},
{
  "type": "node",
  "id": 8495825509,
  "lat": -7.9932721,
  "lon": 131.2902152
},
{
  "type": "node",
  "id": 8495825510,
  "lat": -7.9939654,
  "lon": 131.2899296
},
{
  "type": "node",
  "id": 8495825511,
  "lat": -7.9944196,
  "lon": 131.2898076
},
{
  "type": "node",
  "id": 8495825512,
  "lat": -7.9946214,
  "lon": 131.2897646
},
{
  "type": "node",
  "id": 8495825515,
  "lat": -7.9931393,
  "lon": 131.2916958
},
{
  "type": "node",
  "id": 8495825516,
  "lat": -7.9933518,
  "lon": 131.2914222
},
{
  "type": "node",
  "id": 8495842217,
  "lat": -7.9935112,
  "lon": 131.2911862
},
{
  "type": "node",
  "id": 8495842218,
  "lat": -7.9935909,
  "lon": 131.2909394
},
{
  "type": "node",
  "id": 12684663290,
  "lat": -7.9965658,
  "lon": 131.2920284
},
{
  "type": "node",
  "id": 12684663291,
  "lat": -7.9961620,
  "lon": 131.2921277
},
{
  "type": "node",
  "id": 12684663292,
  "lat": -7.9952164,
  "lon": 131.2924683
},
{
  "type": "node",
  "id": 12684663293,
  "lat": -7.9944940,
  "lon": 131.2925541
},
{
  "type": "node",
  "id": 12684663294,
  "lat": -7.9940743,
  "lon": 131.2923932
},
{
  "type": "node",
  "id": 12684663295,
  "lat": -7.9938352,
  "lon": 131.2915081
},
{
  "type": "node",
  "id": 12684663302,
  "lat": -7.9948265,
  "lon": 131.2904003
},
{
  "type": "node",
  "id": 12684663305,
  "lat": -7.9947649,
  "lon": 131.2901589
},
{
  "type": "node",
  "id": 12684663306,
  "lat": -7.9948765,
  "lon": 131.2905961
},
{
  "type": "node",
  "id": 12684663307,
  "lat": -7.9950093,
  "lon": 131.2906229
},
{
  "type": "node",
  "id": 12684663308,
  "lat": -7.9952696,
  "lon": 131.2905264
},
{
  "type": "node",
  "id": 12684663309,
  "lat": -7.9955617,
  "lon": 131.2902045
},
{
  "type": "node",
  "id": 12684663310,
  "lat": -7.9963267,
  "lon": 131.2898022
},
{
  "type": "node",
  "id": 12684663311,
  "lat": -7.9967729,
  "lon": 131.2912130
},
{
  "type": "node",
  "id": 12684663312,
  "lat": -7.9975432,
  "lon": 131.2910682
},
{
  "type": "node",
  "id": 12684663313,
  "lat": -7.9976760,
  "lon": 131.2918943
},
{
  "type": "node",
  "id": 12684663323,
  "lat": -7.9935462,
  "lon": 131.2887708
},
{
  "type": "node",
  "id": 12684663324,
  "lat": -7.9934738,
  "lon": 131.2887932
},
{
  "type": "node",
  "id": 12684663325,
  "lat": -7.9935975,
  "lon": 131.2887548
},
{
  "type": "node",
  "id": 12684663326,
  "lat": -7.9934076,
  "lon": 131.2888138
},
{
  "type": "node",
  "id": 12684663327,
  "lat": -7.9937449,
  "lon": 131.2900107
},
{
  "type": "node",
  "id": 12684663258,
  "lat": -7.9930650,
  "lon": 131.3001502
},
{
  "type": "node",
  "id": 12684663257,
  "lat": -7.9937768,
  "lon": 131.3021564
},
{
  "type": "node",
  "id": 12684663252,
  "lat": -7.9909613,
  "lon": 131.3012552
},
{
  "type": "node",
  "id": 12684663259,
  "lat": -7.9916838,
  "lon": 131.3001984
},
{
  "type": "node",
  "id": 12684663260,
  "lat": -7.9912694,
  "lon": 131.3001877
},
{
  "type": "node",
  "id": 12684663253,
  "lat": -7.9913756,
  "lon": 131.3029075
},
{
  "type": "node",
  "id": 12684663254,
  "lat": -7.9907222,
  "lon": 131.3036638
},
{
  "type": "node",
  "id": 12684663255,
  "lat": -7.9911127,
  "lon": 131.3039857
},
{
  "type": "node",
  "id": 12684663256,
  "lat": -7.9916705,
  "lon": 131.3033983
},
{
  "type": "node",
  "id": 12684662943,
  "lat": -7.9510505,
  "lon": 131.3127726
},
{
  "type": "node",
  "id": 12684662944,
  "lat": -7.9516694,
  "lon": 131.3135129
},
{
  "type": "node",
  "id": 12684662945,
  "lat": -7.9524291,
  "lon": 131.3128719
},
{
  "type": "node",
  "id": 12684662946,
  "lat": -7.9517464,
  "lon": 131.3121423
},
{
  "type": "node",
  "id": 12684663238,
  "lat": -7.9332441,
  "lon": 131.3130248
},
{
  "type": "node",
  "id": 12684663248,
  "lat": -7.9337807,
  "lon": 131.3130087
},
{
  "type": "node",
  "id": 12684663239,
  "lat": -7.9324790,
  "lon": 131.3130811
},
{
  "type": "node",
  "id": 12684663240,
  "lat": -7.9295900,
  "lon": 131.3144208
},
{
  "type": "node",
  "id": 12684663241,
  "lat": -7.9272867,
  "lon": 131.3130690
},
{
  "type": "node",
  "id": 12684663242,
  "lat": -7.9270171,
  "lon": 131.3128316
},
{
  "type": "node",
  "id": 12684663243,
  "lat": -7.9268471,
  "lon": 131.3125956
},
{
  "type": "node",
  "id": 12684663245,
  "lat": -7.9297427,
  "lon": 131.3090336
},
{
  "type": "node",
  "id": 12684663246,
  "lat": -7.9303803,
  "lon": 131.3107288
},
{
  "type": "node",
  "id": 12684663247,
  "lat": -7.9314217,
  "lon": 131.3102621
},
{
  "type": "node",
  "id": 12684663244,
  "lat": -7.9258323,
  "lon": 131.3106590
},
{
  "type": "node",
  "id": 12684663223,
  "lat": -7.8563168,
  "lon": 131.3262990
},
{
  "type": "node",
  "id": 12684663224,
  "lat": -7.8568907,
  "lon": 131.3271654
},
{
  "type": "node",
  "id": 12684663236,
  "lat": -7.8548395,
  "lon": 131.3274121
},
{
  "type": "node",
  "id": 12684663225,
  "lat": -7.8573238,
  "lon": 131.3276991
},
{
  "type": "node",
  "id": 12684663226,
  "lat": -7.8558811,
  "lon": 131.3291341
},
{
  "type": "node",
  "id": 12684663227,
  "lat": -7.8554373,
  "lon": 131.3297617
},
{
  "type": "node",
  "id": 12684663228,
  "lat": -7.8548528,
  "lon": 131.3303116
},
{
  "type": "node",
  "id": 12684663229,
  "lat": -7.8552992,
  "lon": 131.3309929
},
{
  "type": "node",
  "id": 12684663234,
  "lat": -7.8550893,
  "lon": 131.3288015
},
{
  "type": "node",
  "id": 12684663235,
  "lat": -7.8555277,
  "lon": 131.3284394
},
{
  "type": "node",
  "id": 12684663230,
  "lat": -7.8537501,
  "lon": 131.3316447
},
{
  "type": "node",
  "id": 12684663231,
  "lat": -7.8531416,
  "lon": 131.3302767
},
{
  "type": "node",
  "id": 12684663232,
  "lat": -7.8535482,
  "lon": 131.3299656
},
{
  "type": "node",
  "id": 12684663233,
  "lat": -7.8534711,
  "lon": 131.3298342
},
{
  "type": "node",
  "id": 12684663173,
  "lat": -7.8614900,
  "lon": 131.3422179
},
{
  "type": "node",
  "id": 11806581195,
  "lat": -7.8552301,
  "lon": 131.3442242
},
{
  "type": "node",
  "id": 12684663167,
  "lat": -7.8554053,
  "lon": 131.3446208
},
{
  "type": "node",
  "id": 12684663171,
  "lat": -7.8587905,
  "lon": 131.3428831
},
{
  "type": "node",
  "id": 12684663172,
  "lat": -7.8591093,
  "lon": 131.3433874
},
{
  "type": "node",
  "id": 12684663174,
  "lat": -7.8606823,
  "lon": 131.3407910
},
{
  "type": "node",
  "id": 12684663175,
  "lat": -7.8598427,
  "lon": 131.3411289
},
{
  "type": "node",
  "id": 12684663176,
  "lat": -7.8602253,
  "lon": 131.3418639
},
{
  "type": "node",
  "id": 11806581194,
  "lat": -7.8538555,
  "lon": 131.3414066
},
{
  "type": "node",
  "id": 11806581196,
  "lat": -7.8532040,
  "lon": 131.3456355
},
{
  "type": "node",
  "id": 11806581197,
  "lat": -7.8516885,
  "lon": 131.3424745
},
{
  "type": "node",
  "id": 12684663170,
  "lat": -7.8544117,
  "lon": 131.3451308
},
{
  "type": "node",
  "id": 10024953346,
  "lat": -5.6641760,
  "lon": 132.7262270
},
{
  "type": "node",
  "id": 10024953347,
  "lat": -5.6640639,
  "lon": 132.7259803
},
{
  "type": "node",
  "id": 10024953348,
  "lat": -5.6639678,
  "lon": 132.7242690
},
{
  "type": "node",
  "id": 10302226329,
  "lat": -5.6642028,
  "lon": 132.7266625
},
{
  "type": "node",
  "id": 1042092729,
  "lat": -5.6644642,
  "lon": 132.7309102
},
{
  "type": "node",
  "id": 10024953327,
  "lat": -5.6598867,
  "lon": 132.7359313
},
{
  "type": "node",
  "id": 10024953329,
  "lat": -5.6611412,
  "lon": 132.7362129
},
{
  "type": "node",
  "id": 10024953330,
  "lat": -5.6611359,
  "lon": 132.7365214
},
{
  "type": "node",
  "id": 10024953338,
  "lat": -5.6635407,
  "lon": 132.7359635
},
{
  "type": "node",
  "id": 10024953339,
  "lat": -5.6638584,
  "lon": 132.7349281
},
{
  "type": "node",
  "id": 10024953340,
  "lat": -5.6648486,
  "lon": 132.7348343
},
{
  "type": "node",
  "id": 10024953341,
  "lat": -5.6647739,
  "lon": 132.7337372
},
{
  "type": "node",
  "id": 10024953342,
  "lat": -5.6649767,
  "lon": 132.7336648
},
{
  "type": "node",
  "id": 10024953343,
  "lat": -5.6648433,
  "lon": 132.7329969
},
{
  "type": "node",
  "id": 10024953344,
  "lat": -5.6649394,
  "lon": 132.7322835
},
{
  "type": "node",
  "id": 10024953345,
  "lat": -5.6645497,
  "lon": 132.7322620
},
{
  "type": "node",
  "id": 10302226319,
  "lat": -5.6648250,
  "lon": 132.7344882
},
{
  "type": "node",
  "id": 10024953328,
  "lat": -5.6599855,
  "lon": 132.7366635
},
{
  "type": "node",
  "id": 10024953331,
  "lat": -5.6614695,
  "lon": 132.7373260
},
{
  "type": "node",
  "id": 10024953332,
  "lat": -5.6616270,
  "lon": 132.7383969
},
{
  "type": "node",
  "id": 10024953333,
  "lat": -5.6627640,
  "lon": 132.7381039
},
{
  "type": "node",
  "id": 10024953334,
  "lat": -5.6627373,
  "lon": 132.7376023
},
{
  "type": "node",
  "id": 10024953335,
  "lat": -5.6629535,
  "lon": 132.7372590
},
{
  "type": "node",
  "id": 10024953336,
  "lat": -5.6632632,
  "lon": 132.7372000
},
{
  "type": "node",
  "id": 10024953337,
  "lat": -5.6636528,
  "lon": 132.7372482
},
{
  "type": "node",
  "id": 10024953349,
  "lat": -5.6587950,
  "lon": 132.7244836
},
{
  "type": "node",
  "id": 10024953350,
  "lat": -5.6588484,
  "lon": 132.7280509
},
{
  "type": "node",
  "id": 10024953322,
  "lat": -5.6588671,
  "lon": 132.7337748
},
{
  "type": "node",
  "id": 10024953323,
  "lat": -5.6582425,
  "lon": 132.7337292
},
{
  "type": "node",
  "id": 10024953324,
  "lat": -5.6582372,
  "lon": 132.7340886
},
{
  "type": "node",
  "id": 10024953325,
  "lat": -5.6577994,
  "lon": 132.7340886
},
{
  "type": "node",
  "id": 10024953326,
  "lat": -5.6577701,
  "lon": 132.7358803
},
{
  "type": "node",
  "id": 10024953351,
  "lat": -5.6588965,
  "lon": 132.7337426
},
{
  "type": "node",
  "id": 10302226318,
  "lat": -5.6588670,
  "lon": 132.7302508
},
{
  "type": "node",
  "id": 10775566048,
  "lat": -2.9197925,
  "lon": 132.2338526
},
{
  "type": "node",
  "id": 10775566049,
  "lat": -2.9199452,
  "lon": 132.2347793
},
{
  "type": "node",
  "id": 10775566052,
  "lat": -2.9198139,
  "lon": 132.2331914
},
{
  "type": "node",
  "id": 6172855467,
  "lat": -2.9312815,
  "lon": 132.2946663
},
{
  "type": "node",
  "id": 6172855469,
  "lat": -2.9310224,
  "lon": 132.2948413
},
{
  "type": "node",
  "id": 6172855470,
  "lat": -2.9308616,
  "lon": 132.2948500
},
{
  "type": "node",
  "id": 6172855471,
  "lat": -2.9306969,
  "lon": 132.2946979
},
{
  "type": "node",
  "id": 6172855473,
  "lat": -2.9310886,
  "lon": 132.2944048
},
{
  "type": "node",
  "id": 10815751055,
  "lat": -2.9310049,
  "lon": 132.2944129
},
{
  "type": "node",
  "id": 10815751056,
  "lat": -2.9310451,
  "lon": 132.2944041
},
{
  "type": "node",
  "id": 5949179703,
  "lat": -2.9311114,
  "lon": 132.3039159
},
{
  "type": "node",
  "id": 5949179704,
  "lat": -2.9311368,
  "lon": 132.3035779
},
{
  "type": "node",
  "id": 5949179705,
  "lat": -2.9310806,
  "lon": 132.3033017
},
{
  "type": "node",
  "id": 5949179706,
  "lat": -2.9309350,
  "lon": 132.3031284
},
{
  "type": "node",
  "id": 5949179707,
  "lat": -2.9307404,
  "lon": 132.3031009
},
{
  "type": "node",
  "id": 5949179708,
  "lat": -2.9305874,
  "lon": 132.3030918
},
{
  "type": "node",
  "id": 5949179709,
  "lat": -2.9303252,
  "lon": 132.3030791
},
{
  "type": "node",
  "id": 5949179710,
  "lat": -2.9301645,
  "lon": 132.3029879
},
{
  "type": "node",
  "id": 5949179711,
  "lat": -2.9300814,
  "lon": 132.3028001
},
{
  "type": "node",
  "id": 5949179712,
  "lat": -2.9300412,
  "lon": 132.3028108
},
{
  "type": "node",
  "id": 5949179713,
  "lat": -2.9299582,
  "lon": 132.3029181
},
{
  "type": "node",
  "id": 5949179714,
  "lat": -2.9300198,
  "lon": 132.3034009
},
{
  "type": "node",
  "id": 5949179715,
  "lat": -2.9299528,
  "lon": 132.3034653
},
{
  "type": "node",
  "id": 5949179716,
  "lat": -2.9299582,
  "lon": 132.3036933
},
{
  "type": "node",
  "id": 5949179717,
  "lat": -2.9300707,
  "lon": 132.3040178
},
{
  "type": "node",
  "id": 6172855268,
  "lat": -2.9310366,
  "lon": 132.3031791
},
{
  "type": "node",
  "id": 6185383864,
  "lat": -2.9311435,
  "lon": 132.3037496
},
{
  "type": "node",
  "id": 6185383865,
  "lat": -2.9310752,
  "lon": 132.3040420
},
{
  "type": "node",
  "id": 5949179718,
  "lat": -2.9304404,
  "lon": 132.3043022
},
{
  "type": "node",
  "id": 5949179719,
  "lat": -2.9307655,
  "lon": 132.3042618
},
{
  "type": "node",
  "id": 5949179720,
  "lat": -2.9309975,
  "lon": 132.3041385
},
{
  "type": "node",
  "id": 6173408735,
  "lat": -2.9262977,
  "lon": 132.3082477
},
{
  "type": "node",
  "id": 6173408736,
  "lat": -2.9270130,
  "lon": 132.3082517
},
{
  "type": "node",
  "id": 6173408737,
  "lat": -2.9270063,
  "lon": 132.3084341
},
{
  "type": "node",
  "id": 6173408738,
  "lat": -2.9273947,
  "lon": 132.3084690
},
{
  "type": "node",
  "id": 6173408739,
  "lat": -2.9279090,
  "lon": 132.3083778
},
{
  "type": "node",
  "id": 6173408740,
  "lat": -2.9278661,
  "lon": 132.3081364
},
{
  "type": "node",
  "id": 6173408741,
  "lat": -2.9279760,
  "lon": 132.3080130
},
{
  "type": "node",
  "id": 6173408742,
  "lat": -2.9281233,
  "lon": 132.3079915
},
{
  "type": "node",
  "id": 6173408743,
  "lat": -2.9281273,
  "lon": 132.3078614
},
{
  "type": "node",
  "id": 6173408744,
  "lat": -2.9280623,
  "lon": 132.3077582
},
{
  "type": "node",
  "id": 6173408745,
  "lat": -2.9279652,
  "lon": 132.3076321
},
{
  "type": "node",
  "id": 6173408746,
  "lat": -2.9277858,
  "lon": 132.3075302
},
{
  "type": "node",
  "id": 6173408747,
  "lat": -2.9276210,
  "lon": 132.3075356
},
{
  "type": "node",
  "id": 6173408748,
  "lat": -2.9273136,
  "lon": 132.3075599
},
{
  "type": "node",
  "id": 6173408749,
  "lat": -2.9265018,
  "lon": 132.3077445
},
{
  "type": "node",
  "id": 10781920175,
  "lat": -2.9308760,
  "lon": 132.3041982
},
{
  "type": "node",
  "id": 10775566050,
  "lat": -2.9187772,
  "lon": 132.2347377
},
{
  "type": "node",
  "id": 10775566051,
  "lat": -2.9187317,
  "lon": 132.2331780
},
{
  "type": "node",
  "id": 4974018098,
  "lat": -0.8881098,
  "lon": 131.2739332
},
{
  "type": "node",
  "id": 4974018099,
  "lat": -0.8880358,
  "lon": 131.2740217
},
{
  "type": "node",
  "id": 4974018102,
  "lat": -0.8880367,
  "lon": 131.2740370
},
{
  "type": "node",
  "id": 5146692158,
  "lat": -0.8881510,
  "lon": 131.2739365
},
{
  "type": "node",
  "id": 5146692159,
  "lat": -0.8880004,
  "lon": 131.2738033
},
{
  "type": "node",
  "id": 4232412212,
  "lat": -0.8815063,
  "lon": 131.2593155
},
{
  "type": "node",
  "id": 4232412215,
  "lat": -0.8824847,
  "lon": 131.2579587
},
{
  "type": "node",
  "id": 4232412221,
  "lat": -0.8825963,
  "lon": 131.2581261
},
{
  "type": "node",
  "id": 6235664034,
  "lat": -0.8825596,
  "lon": 131.2580710
},
{
  "type": "node",
  "id": 6235664035,
  "lat": -0.8825227,
  "lon": 131.2580129
},
{
  "type": "node",
  "id": 6235664036,
  "lat": -0.8832029,
  "lon": 131.2576934
},
{
  "type": "node",
  "id": 6235664037,
  "lat": -0.8831801,
  "lon": 131.2576385
},
{
  "type": "node",
  "id": 6235664038,
  "lat": -0.8831850,
  "lon": 131.2573782
},
{
  "type": "node",
  "id": 6235664039,
  "lat": -0.8838511,
  "lon": 131.2588778
},
{
  "type": "node",
  "id": 6235664040,
  "lat": -0.8837468,
  "lon": 131.2589245
},
{
  "type": "node",
  "id": 6235664041,
  "lat": -0.8830930,
  "lon": 131.2574322
},
{
  "type": "node",
  "id": 6235664042,
  "lat": -0.8818373,
  "lon": 131.2598584
},
{
  "type": "node",
  "id": 3012910466,
  "lat": -0.8802805,
  "lon": 131.2597602
},
{
  "type": "node",
  "id": 4232412195,
  "lat": -0.8810080,
  "lon": 131.2588230
},
{
  "type": "node",
  "id": 4232412202,
  "lat": -0.8811913,
  "lon": 131.2589833
},
{
  "type": "node",
  "id": 5146519994,
  "lat": -0.8792412,
  "lon": 131.2599923
},
{
  "type": "node",
  "id": 5146519995,
  "lat": -0.8787073,
  "lon": 131.2603115
},
{
  "type": "node",
  "id": 5478741692,
  "lat": -0.8806180,
  "lon": 131.2586592
},
{
  "type": "node",
  "id": 5478741693,
  "lat": -0.8795379,
  "lon": 131.2586694
},
{
  "type": "node",
  "id": 5478741694,
  "lat": -0.8780044,
  "lon": 131.2590602
},
{
  "type": "node",
  "id": 6235664030,
  "lat": -0.8793809,
  "lon": 131.2602261
},
{
  "type": "node",
  "id": 6235664031,
  "lat": -0.8802022,
  "lon": 131.2589073
},
{
  "type": "node",
  "id": 6235664032,
  "lat": -0.8802566,
  "lon": 131.2597184
},
{
  "type": "node",
  "id": 6235664033,
  "lat": -0.8807717,
  "lon": 131.2587757
},
{
  "type": "node",
  "id": 6235664043,
  "lat": -0.8807038,
  "lon": 131.2605015
},
{
  "type": "node",
  "id": 6235664044,
  "lat": -0.8782477,
  "lon": 131.2595303
},
{
  "type": "node",
  "id": 6235664045,
  "lat": -0.8785357,
  "lon": 131.2600198
},
{
  "type": "node",
  "id": 6235664062,
  "lat": -0.8813000,
  "lon": 131.2588629
},
{
  "type": "node",
  "id": 6235664071,
  "lat": -0.8789506,
  "lon": 131.2590115
},
{
  "type": "node",
  "id": 6235664072,
  "lat": -0.8786320,
  "lon": 131.2586664
},
{
  "type": "node",
  "id": 4955085961,
  "lat": -0.8801614,
  "lon": 131.2650914
},
{
  "type": "node",
  "id": 4955085962,
  "lat": -0.8802419,
  "lon": 131.2650538
},
{
  "type": "node",
  "id": 4955085963,
  "lat": -0.8802154,
  "lon": 131.2649971
},
{
  "type": "node",
  "id": 4955085964,
  "lat": -0.8801350,
  "lon": 131.2650347
},
{
  "type": "node",
  "id": 4963762866,
  "lat": -0.8801009,
  "lon": 131.2645261
},
{
  "type": "node",
  "id": 4963762867,
  "lat": -0.8801250,
  "lon": 131.2645874
},
{
  "type": "node",
  "id": 4963762868,
  "lat": -0.8800868,
  "lon": 131.2646007
},
{
  "type": "node",
  "id": 4963762869,
  "lat": -0.8800652,
  "lon": 131.2645385
},
{
  "type": "node",
  "id": 4963762870,
  "lat": -0.8802552,
  "lon": 131.2646934
},
{
  "type": "node",
  "id": 4963762871,
  "lat": -0.8800954,
  "lon": 131.2642857
},
{
  "type": "node",
  "id": 4963762872,
  "lat": -0.8801243,
  "lon": 131.2643594
},
{
  "type": "node",
  "id": 4963762873,
  "lat": -0.8805175,
  "lon": 131.2646540
},
{
  "type": "node",
  "id": 4963762874,
  "lat": -0.8804876,
  "lon": 131.2645881
},
{
  "type": "node",
  "id": 4963762875,
  "lat": -0.8803445,
  "lon": 131.2642698
},
{
  "type": "node",
  "id": 4963762876,
  "lat": -0.8803146,
  "lon": 131.2641965
},
{
  "type": "node",
  "id": 4963762877,
  "lat": -0.8800670,
  "lon": 131.2642133
},
{
  "type": "node",
  "id": 4963762878,
  "lat": -0.8802020,
  "lon": 131.2647839
},
{
  "type": "node",
  "id": 4963762879,
  "lat": -0.8799901,
  "lon": 131.2642434
},
{
  "type": "node",
  "id": 4963762900,
  "lat": -0.8804835,
  "lon": 131.2642472
},
{
  "type": "node",
  "id": 4963762901,
  "lat": -0.8806726,
  "lon": 131.2646563
},
{
  "type": "node",
  "id": 4963762902,
  "lat": -0.8805909,
  "lon": 131.2646940
},
{
  "type": "node",
  "id": 4963762903,
  "lat": -0.8804018,
  "lon": 131.2642850
},
{
  "type": "node",
  "id": 4963762904,
  "lat": -0.8804326,
  "lon": 131.2641549
},
{
  "type": "node",
  "id": 4963762905,
  "lat": -0.8804554,
  "lon": 131.2642233
},
{
  "type": "node",
  "id": 4963762906,
  "lat": -0.8803589,
  "lon": 131.2642555
},
{
  "type": "node",
  "id": 4963762907,
  "lat": -0.8803361,
  "lon": 131.2641871
},
{
  "type": "node",
  "id": 4963762908,
  "lat": -0.8802179,
  "lon": 131.2639524
},
{
  "type": "node",
  "id": 4963762909,
  "lat": -0.8802970,
  "lon": 131.2641375
},
{
  "type": "node",
  "id": 4963762910,
  "lat": -0.8803723,
  "lon": 131.2641053
},
{
  "type": "node",
  "id": 4963762911,
  "lat": -0.8802932,
  "lon": 131.2639202
},
{
  "type": "node",
  "id": 4974022177,
  "lat": -0.8802519,
  "lon": 131.2648856
},
{
  "type": "node",
  "id": 4974022178,
  "lat": -0.8804959,
  "lon": 131.2647944
},
{
  "type": "node",
  "id": 4974022179,
  "lat": -0.8805426,
  "lon": 131.2649193
},
{
  "type": "node",
  "id": 4974022180,
  "lat": -0.8802985,
  "lon": 131.2650105
},
{
  "type": "node",
  "id": 5146528433,
  "lat": -0.8801319,
  "lon": 131.2651559
},
{
  "type": "node",
  "id": 5146528434,
  "lat": -0.8805851,
  "lon": 131.2649614
},
{
  "type": "node",
  "id": 5146528435,
  "lat": -0.8804939,
  "lon": 131.2647401
},
{
  "type": "node",
  "id": 5146528436,
  "lat": -0.8806964,
  "lon": 131.2646610
},
{
  "type": "node",
  "id": 5146528437,
  "lat": -0.8804644,
  "lon": 131.2640998
},
{
  "type": "node",
  "id": 5146528438,
  "lat": -0.8804028,
  "lon": 131.2641239
},
{
  "type": "node",
  "id": 5146528439,
  "lat": -0.8802874,
  "lon": 131.2638744
},
{
  "type": "node",
  "id": 5146528440,
  "lat": -0.8797001,
  "lon": 131.2641319
},
{
  "type": "node",
  "id": 4974018097,
  "lat": -0.8879911,
  "lon": 131.2738340
},
{
  "type": "node",
  "id": 4974018100,
  "lat": -0.8879172,
  "lon": 131.2739224
},
{
  "type": "node",
  "id": 4974018101,
  "lat": -0.8879059,
  "lon": 131.2739287
},
{
  "type": "node",
  "id": 4974018103,
  "lat": -0.8879726,
  "lon": 131.2741144
},
{
  "type": "node",
  "id": 4974018104,
  "lat": -0.8878418,
  "lon": 131.2740060
},
{
  "type": "node",
  "id": 5146692156,
  "lat": -0.8878212,
  "lon": 131.2740059
},
{
  "type": "node",
  "id": 5146692157,
  "lat": -0.8879719,
  "lon": 131.2741392
},
{
  "type": "node",
  "id": 5484326659,
  "lat": -0.8723021,
  "lon": 131.2469550
},
{
  "type": "node",
  "id": 5484326660,
  "lat": -0.8730647,
  "lon": 131.2468500
},
{
  "type": "node",
  "id": 5484326661,
  "lat": -0.8728330,
  "lon": 131.2462437
},
{
  "type": "node",
  "id": 5484326662,
  "lat": -0.8726790,
  "lon": 131.2459941
},
{
  "type": "node",
  "id": 5484326663,
  "lat": -0.8719897,
  "lon": 131.2461556
},
{
  "type": "node",
  "id": 8328139447,
  "lat": -0.8727537,
  "lon": 131.2460534
},
{
  "type": "node",
  "id": 8328139448,
  "lat": -0.8727403,
  "lon": 131.2460386
},
{
  "type": "node",
  "id": 8328139449,
  "lat": -0.8727195,
  "lon": 131.2460185
},
{
  "type": "node",
  "id": 8328139450,
  "lat": -0.8721375,
  "lon": 131.2461090
},
{
  "type": "node",
  "id": 8328139451,
  "lat": -0.8724567,
  "lon": 131.2460098
},
{
  "type": "node",
  "id": 8328139452,
  "lat": -0.8726069,
  "lon": 131.2459762
},
{
  "type": "node",
  "id": 5149014062,
  "lat": -0.9322250,
  "lon": 131.3332947
},
{
  "type": "node",
  "id": 5149014063,
  "lat": -0.9328982,
  "lon": 131.3333349
},
{
  "type": "node",
  "id": 5149014064,
  "lat": -0.9329096,
  "lon": 131.3331443
},
{
  "type": "node",
  "id": 5149014065,
  "lat": -0.9322364,
  "lon": 131.3331040
},
{
  "type": "node",
  "id": 4974187361,
  "lat": -0.8893873,
  "lon": 131.2859803
},
{
  "type": "node",
  "id": 4974187362,
  "lat": -0.8895613,
  "lon": 131.2858867
},
{
  "type": "node",
  "id": 4974187363,
  "lat": -0.8895889,
  "lon": 131.2859288
},
{
  "type": "node",
  "id": 4974187364,
  "lat": -0.8894751,
  "lon": 131.2860501
},
{
  "type": "node",
  "id": 4974187365,
  "lat": -0.8893218,
  "lon": 131.2861852
},
{
  "type": "node",
  "id": 4974187366,
  "lat": -0.8894437,
  "lon": 131.2861002
},
{
  "type": "node",
  "id": 4974187367,
  "lat": -0.8894932,
  "lon": 131.2861705
},
{
  "type": "node",
  "id": 4974187368,
  "lat": -0.8893717,
  "lon": 131.2862561
},
{
  "type": "node",
  "id": 13028659430,
  "lat": -0.8895790,
  "lon": 131.2859353
},
{
  "type": "node",
  "id": 13028659431,
  "lat": -0.8896003,
  "lon": 131.2859676
},
{
  "type": "node",
  "id": 13028659432,
  "lat": -0.8894691,
  "lon": 131.2860410
},
{
  "type": "node",
  "id": 13028659433,
  "lat": -0.8894400,
  "lon": 131.2860602
},
{
  "type": "node",
  "id": 13028659434,
  "lat": -0.8895183,
  "lon": 131.2859150
},
{
  "type": "node",
  "id": 13028659435,
  "lat": -0.8895078,
  "lon": 131.2859056
},
{
  "type": "node",
  "id": 13028659436,
  "lat": -0.8894672,
  "lon": 131.2859323
},
{
  "type": "node",
  "id": 13028659437,
  "lat": -0.8894751,
  "lon": 131.2859442
},
{
  "type": "node",
  "id": 13028659438,
  "lat": -0.8894330,
  "lon": 131.2859719
},
{
  "type": "node",
  "id": 13028659439,
  "lat": -0.8894230,
  "lon": 131.2859567
},
{
  "type": "node",
  "id": 13028659440,
  "lat": -0.8893555,
  "lon": 131.2861615
},
{
  "type": "node",
  "id": 13028659441,
  "lat": -0.8893960,
  "lon": 131.2861338
},
{
  "type": "node",
  "id": 13028659442,
  "lat": -0.8893744,
  "lon": 131.2861032
},
{
  "type": "node",
  "id": 13028659443,
  "lat": -0.8893343,
  "lon": 131.2861315
},
{
  "type": "node",
  "id": 4993752245,
  "lat": -0.8940672,
  "lon": 131.3168349
},
{
  "type": "node",
  "id": 4993752246,
  "lat": -0.8941852,
  "lon": 131.3169178
},
{
  "type": "node",
  "id": 4993752247,
  "lat": -0.8941372,
  "lon": 131.3169860
},
{
  "type": "node",
  "id": 4993752248,
  "lat": -0.8940193,
  "lon": 131.3169030
},
{
  "type": "node",
  "id": 4993752307,
  "lat": -0.8929550,
  "lon": 131.3160840
},
{
  "type": "node",
  "id": 4993752308,
  "lat": -0.8930401,
  "lon": 131.3161444
},
{
  "type": "node",
  "id": 4993752309,
  "lat": -0.8929785,
  "lon": 131.3162313
},
{
  "type": "node",
  "id": 4993752310,
  "lat": -0.8928934,
  "lon": 131.3161710
},
{
  "type": "node",
  "id": 4993752311,
  "lat": -0.8929986,
  "lon": 131.3162249
},
{
  "type": "node",
  "id": 4993752312,
  "lat": -0.8931823,
  "lon": 131.3163537
},
{
  "type": "node",
  "id": 4993752313,
  "lat": -0.8931280,
  "lon": 131.3164312
},
{
  "type": "node",
  "id": 4993752314,
  "lat": -0.8929443,
  "lon": 131.3163024
},
{
  "type": "node",
  "id": 4993752315,
  "lat": -0.8929805,
  "lon": 131.3162405
},
{
  "type": "node",
  "id": 4993752316,
  "lat": -0.8927894,
  "lon": 131.3165295
},
{
  "type": "node",
  "id": 4993752317,
  "lat": -0.8927076,
  "lon": 131.3164754
},
{
  "type": "node",
  "id": 4993752318,
  "lat": -0.8928987,
  "lon": 131.3161864
},
{
  "type": "node",
  "id": 4993752319,
  "lat": -0.8932440,
  "lon": 131.3165525
},
{
  "type": "node",
  "id": 4993752320,
  "lat": -0.8931682,
  "lon": 131.3166745
},
{
  "type": "node",
  "id": 4993752321,
  "lat": -0.8930549,
  "lon": 131.3166042
},
{
  "type": "node",
  "id": 4993752322,
  "lat": -0.8931307,
  "lon": 131.3164821
},
{
  "type": "node",
  "id": 4993752323,
  "lat": -0.8933179,
  "lon": 131.3164189
},
{
  "type": "node",
  "id": 4993752324,
  "lat": -0.8932422,
  "lon": 131.3165316
},
{
  "type": "node",
  "id": 4993752325,
  "lat": -0.8931408,
  "lon": 131.3164634
},
{
  "type": "node",
  "id": 4993752326,
  "lat": -0.8932165,
  "lon": 131.3163507
},
{
  "type": "node",
  "id": 4993752327,
  "lat": -0.8933953,
  "lon": 131.3165642
},
{
  "type": "node",
  "id": 4993752328,
  "lat": -0.8932874,
  "lon": 131.3167258
},
{
  "type": "node",
  "id": 4993752329,
  "lat": -0.8931857,
  "lon": 131.3166578
},
{
  "type": "node",
  "id": 4993752330,
  "lat": -0.8932936,
  "lon": 131.3164962
},
{
  "type": "node",
  "id": 4993752331,
  "lat": -0.8932856,
  "lon": 131.3164777
},
{
  "type": "node",
  "id": 4993752332,
  "lat": -0.8934123,
  "lon": 131.3165589
},
{
  "type": "node",
  "id": 4993752333,
  "lat": -0.8934760,
  "lon": 131.3164593
},
{
  "type": "node",
  "id": 4993752334,
  "lat": -0.8933493,
  "lon": 131.3163782
},
{
  "type": "node",
  "id": 5004311927,
  "lat": -0.8940012,
  "lon": 131.3170024
},
{
  "type": "node",
  "id": 5004311928,
  "lat": -0.8940602,
  "lon": 131.3170383
},
{
  "type": "node",
  "id": 5004311929,
  "lat": -0.8940838,
  "lon": 131.3169995
},
{
  "type": "node",
  "id": 5004311930,
  "lat": -0.8940248,
  "lon": 131.3169636
},
{
  "type": "node",
  "id": 5004311931,
  "lat": -0.8938704,
  "lon": 131.3171985
},
{
  "type": "node",
  "id": 5004311932,
  "lat": -0.8939247,
  "lon": 131.3172306
},
{
  "type": "node",
  "id": 5004311933,
  "lat": -0.8939554,
  "lon": 131.3171788
},
{
  "type": "node",
  "id": 5004311934,
  "lat": -0.8939011,
  "lon": 131.3171466
},
{
  "type": "node",
  "id": 5004311935,
  "lat": -0.8940574,
  "lon": 131.3170632
},
{
  "type": "node",
  "id": 5004311936,
  "lat": -0.8939797,
  "lon": 131.3171833
},
{
  "type": "node",
  "id": 5004311937,
  "lat": -0.8939004,
  "lon": 131.3171319
},
{
  "type": "node",
  "id": 5004311938,
  "lat": -0.8939782,
  "lon": 131.3170119
},
{
  "type": "node",
  "id": 5004311939,
  "lat": -0.8937295,
  "lon": 131.3172840
},
{
  "type": "node",
  "id": 5004311940,
  "lat": -0.8938206,
  "lon": 131.3173501
},
{
  "type": "node",
  "id": 5004311941,
  "lat": -0.8938986,
  "lon": 131.3172426
},
{
  "type": "node",
  "id": 5004311942,
  "lat": -0.8938075,
  "lon": 131.3171765
},
{
  "type": "node",
  "id": 5004311943,
  "lat": -0.8940094,
  "lon": 131.3168332
},
{
  "type": "node",
  "id": 5004311944,
  "lat": -0.8937211,
  "lon": 131.3172664
},
{
  "type": "node",
  "id": 5004311945,
  "lat": -0.8936369,
  "lon": 131.3172103
},
{
  "type": "node",
  "id": 5004311946,
  "lat": -0.8939252,
  "lon": 131.3167771
},
{
  "type": "node",
  "id": 5004311947,
  "lat": -0.8938760,
  "lon": 131.3167489
},
{
  "type": "node",
  "id": 5004311948,
  "lat": -0.8938056,
  "lon": 131.3168622
},
{
  "type": "node",
  "id": 5004311949,
  "lat": -0.8937388,
  "lon": 131.3168208
},
{
  "type": "node",
  "id": 5004311950,
  "lat": -0.8938092,
  "lon": 131.3167074
},
{
  "type": "node",
  "id": 5004311951,
  "lat": -0.8938088,
  "lon": 131.3166849
},
{
  "type": "node",
  "id": 5004311952,
  "lat": -0.8937424,
  "lon": 131.3167901
},
{
  "type": "node",
  "id": 5004311953,
  "lat": -0.8936262,
  "lon": 131.3167168
},
{
  "type": "node",
  "id": 5004311954,
  "lat": -0.8936926,
  "lon": 131.3166115
},
{
  "type": "node",
  "id": 5004311955,
  "lat": -0.8935583,
  "lon": 131.3166912
},
{
  "type": "node",
  "id": 5004311956,
  "lat": -0.8935235,
  "lon": 131.3167455
},
{
  "type": "node",
  "id": 5004311957,
  "lat": -0.8934599,
  "lon": 131.3167047
},
{
  "type": "node",
  "id": 5004311958,
  "lat": -0.8934948,
  "lon": 131.3166504
},
{
  "type": "node",
  "id": 5004311959,
  "lat": -0.8933061,
  "lon": 131.3169836
},
{
  "type": "node",
  "id": 5004311960,
  "lat": -0.8934033,
  "lon": 131.3170473
},
{
  "type": "node",
  "id": 5004311961,
  "lat": -0.8935095,
  "lon": 131.3168851
},
{
  "type": "node",
  "id": 5004311962,
  "lat": -0.8934123,
  "lon": 131.3168214
},
{
  "type": "node",
  "id": 5006643007,
  "lat": -0.8933923,
  "lon": 131.3168466
},
{
  "type": "node",
  "id": 5006643008,
  "lat": -0.8933011,
  "lon": 131.3169864
},
{
  "type": "node",
  "id": 5006643009,
  "lat": -0.8932420,
  "lon": 131.3169478
},
{
  "type": "node",
  "id": 5006643010,
  "lat": -0.8933332,
  "lon": 131.3168080
},
{
  "type": "node",
  "id": 5006643011,
  "lat": -0.8934172,
  "lon": 131.3168161
},
{
  "type": "node",
  "id": 5006643012,
  "lat": -0.8935271,
  "lon": 131.3168832
},
{
  "type": "node",
  "id": 5006643013,
  "lat": -0.8935819,
  "lon": 131.3167933
},
{
  "type": "node",
  "id": 5006643014,
  "lat": -0.8934720,
  "lon": 131.3167262
},
{
  "type": "node",
  "id": 5148926531,
  "lat": -0.8925211,
  "lon": 131.3165817
},
{
  "type": "node",
  "id": 5148926532,
  "lat": -0.8938348,
  "lon": 131.3174623
},
{
  "type": "node",
  "id": 5148926533,
  "lat": -0.8942000,
  "lon": 131.3169173
},
{
  "type": "node",
  "id": 5148926534,
  "lat": -0.8928864,
  "lon": 131.3160367
},
{
  "type": "node",
  "id": 7932949825,
  "lat": -0.8937932,
  "lon": 131.3166446
},
{
  "type": "node",
  "id": 2110325202,
  "lat": -1.5098423,
  "lon": 134.1738710
},
{
  "type": "node",
  "id": 2110325209,
  "lat": -1.5098872,
  "lon": 134.1740209
},
{
  "type": "node",
  "id": 2110325217,
  "lat": -1.5099128,
  "lon": 134.1738498
},
{
  "type": "node",
  "id": 2110325228,
  "lat": -1.5099577,
  "lon": 134.1739998
},
{
  "type": "node",
  "id": 12777773315,
  "lat": -0.9291556,
  "lon": 134.0331441
},
{
  "type": "node",
  "id": 12777773316,
  "lat": -0.9291382,
  "lon": 134.0324253
},
{
  "type": "node",
  "id": 12777773317,
  "lat": -0.9287278,
  "lon": 134.0324306
},
{
  "type": "node",
  "id": 12777773318,
  "lat": -0.9287654,
  "lon": 134.0303063
},
{
  "type": "node",
  "id": 12777773319,
  "lat": -0.9276712,
  "lon": 134.0302688
},
{
  "type": "node",
  "id": 12777773320,
  "lat": -0.9276873,
  "lon": 134.0297028
},
{
  "type": "node",
  "id": 12777773343,
  "lat": -0.9291140,
  "lon": 134.0336081
},
{
  "type": "node",
  "id": 12777773332,
  "lat": -0.9286420,
  "lon": 134.0391469
},
{
  "type": "node",
  "id": 12777773333,
  "lat": -0.9293500,
  "lon": 134.0391496
},
{
  "type": "node",
  "id": 12777773334,
  "lat": -0.9293634,
  "lon": 134.0390074
},
{
  "type": "node",
  "id": 12777773335,
  "lat": -0.9293688,
  "lon": 134.0378889
},
{
  "type": "node",
  "id": 12777773336,
  "lat": -0.9293996,
  "lon": 134.0373686
},
{
  "type": "node",
  "id": 12777773337,
  "lat": -0.9294211,
  "lon": 134.0369502
},
{
  "type": "node",
  "id": 12777773338,
  "lat": -0.9293018,
  "lon": 134.0369341
},
{
  "type": "node",
  "id": 12777773339,
  "lat": -0.9293044,
  "lon": 134.0363547
},
{
  "type": "node",
  "id": 12777773340,
  "lat": -0.9292991,
  "lon": 134.0356305
},
{
  "type": "node",
  "id": 12777773341,
  "lat": -0.9291784,
  "lon": 134.0350150
},
{
  "type": "node",
  "id": 12777773342,
  "lat": -0.9290966,
  "lon": 134.0345952
},
{
  "type": "node",
  "id": 12777773321,
  "lat": -0.9266253,
  "lon": 134.0296948
},
{
  "type": "node",
  "id": 12777773322,
  "lat": -0.9266253,
  "lon": 134.0302125
},
{
  "type": "node",
  "id": 12777773323,
  "lat": -0.9266601,
  "lon": 134.0311298
},
{
  "type": "node",
  "id": 12777773324,
  "lat": -0.9268237,
  "lon": 134.0324843
},
{
  "type": "node",
  "id": 12777773325,
  "lat": -0.9269042,
  "lon": 134.0328652
},
{
  "type": "node",
  "id": 12777773326,
  "lat": -0.9267379,
  "lon": 134.0329671
},
{
  "type": "node",
  "id": 12777773327,
  "lat": -0.9240024,
  "lon": 134.0345013
},
{
  "type": "node",
  "id": 12777773328,
  "lat": -0.9251931,
  "lon": 134.0360302
},
{
  "type": "node",
  "id": 12777773329,
  "lat": -0.9245817,
  "lon": 134.0364808
},
{
  "type": "node",
  "id": 12777773330,
  "lat": -0.9259065,
  "lon": 134.0373337
},
{
  "type": "node",
  "id": 12777773331,
  "lat": -0.9259709,
  "lon": 134.0391523
},
{
  "type": "node",
  "id": 1978811380,
  "lat": -0.8732356,
  "lon": 134.0794377
},
{
  "type": "node",
  "id": 1978811381,
  "lat": -0.8732936,
  "lon": 134.0795282
},
{
  "type": "node",
  "id": 1978811382,
  "lat": -0.8733683,
  "lon": 134.0793526
},
{
  "type": "node",
  "id": 1978811383,
  "lat": -0.8734264,
  "lon": 134.0794431
},
{
  "type": "node",
  "id": 1945658373,
  "lat": -0.8626385,
  "lon": 134.0752016
},
{
  "type": "node",
  "id": 1945658380,
  "lat": -0.8628041,
  "lon": 134.0748319
},
{
  "type": "node",
  "id": 1945658387,
  "lat": -0.8630619,
  "lon": 134.0754234
},
{
  "type": "node",
  "id": 1945658391,
  "lat": -0.8632489,
  "lon": 134.0750657
},
{
  "type": "node",
  "id": 12952090100,
  "lat": -7.3199459,
  "lon": 140.5581164
},
{
  "type": "node",
  "id": 12952176401,
  "lat": -7.3199618,
  "lon": 140.5585402
},
{
  "type": "node",
  "id": 12952176402,
  "lat": -7.3201374,
  "lon": 140.5586958
},
{
  "type": "node",
  "id": 12952176403,
  "lat": -7.3206376,
  "lon": 140.5587655
},
{
  "type": "node",
  "id": 12952176404,
  "lat": -7.3210845,
  "lon": 140.5587012
},
{
  "type": "node",
  "id": 12952176405,
  "lat": -7.3214463,
  "lon": 140.5588943
},
{
  "type": "node",
  "id": 12983358960,
  "lat": -7.3213040,
  "lon": 140.5593853
},
{
  "type": "node",
  "id": 12983358961,
  "lat": -7.3201001,
  "lon": 140.5573434
},
{
  "type": "node",
  "id": 12983358962,
  "lat": -7.3197211,
  "lon": 140.5572782
},
{
  "type": "node",
  "id": 12983358963,
  "lat": -7.3196214,
  "lon": 140.5579294
},
{
  "type": "node",
  "id": 12983358964,
  "lat": -7.3195736,
  "lon": 140.5584012
},
{
  "type": "node",
  "id": 12983358965,
  "lat": -7.3195577,
  "lon": 140.5586618
},
{
  "type": "node",
  "id": 12983358966,
  "lat": -7.3196462,
  "lon": 140.5587720
},
{
  "type": "node",
  "id": 12983358967,
  "lat": -7.3202034,
  "lon": 140.5590822
},
{
  "type": "node",
  "id": 10259648413,
  "lat": -4.6347106,
  "lon": 136.8324622
},
{
  "type": "node",
  "id": 10259648418,
  "lat": -4.6361003,
  "lon": 136.8325060
},
{
  "type": "node",
  "id": 10259648414,
  "lat": -4.6336044,
  "lon": 136.8385083
},
{
  "type": "node",
  "id": 10259648416,
  "lat": -4.6346582,
  "lon": 136.8348973
},
{
  "type": "node",
  "id": 10259648419,
  "lat": -4.6339669,
  "lon": 136.8391207
},
{
  "type": "node",
  "id": 10259648423,
  "lat": -4.6366088,
  "lon": 136.8384626
},
{
  "type": "node",
  "id": 10259648424,
  "lat": -4.6333756,
  "lon": 136.8349119
},
{
  "type": "node",
  "id": 10259648412,
  "lat": -4.6368201,
  "lon": 136.8421077
},
{
  "type": "node",
  "id": 10259648420,
  "lat": -4.6367707,
  "lon": 136.8404244
},
{
  "type": "node",
  "id": 10259648415,
  "lat": -4.6349071,
  "lon": 136.8413072
},
{
  "type": "node",
  "id": 10259648417,
  "lat": -4.6358598,
  "lon": 136.8418263
},
{
  "type": "node",
  "id": 10259648421,
  "lat": -4.6341629,
  "lon": 136.8408601
},
{
  "type": "node",
  "id": 10259648422,
  "lat": -4.6365091,
  "lon": 136.8421329
},
{
  "type": "node",
  "id": 9143442112,
  "lat": -3.9309427,
  "lon": 136.3736991
},
{
  "type": "node",
  "id": 9143442115,
  "lat": -3.9316812,
  "lon": 136.3738198
},
{
  "type": "node",
  "id": 9143442116,
  "lat": -3.9316384,
  "lon": 136.3737366
},
{
  "type": "node",
  "id": 9143445217,
  "lat": -3.9314832,
  "lon": 136.3737366
},
{
  "type": "node",
  "id": 9143445218,
  "lat": -3.9313253,
  "lon": 136.3736669
},
{
  "type": "node",
  "id": 9143442113,
  "lat": -3.9309320,
  "lon": 136.3740263
},
{
  "type": "node",
  "id": 9143442114,
  "lat": -3.9315126,
  "lon": 136.3739700
},
{
  "type": "node",
  "id": 9140728035,
  "lat": -3.9268133,
  "lon": 136.3781513
},
{
  "type": "node",
  "id": 9140728036,
  "lat": -3.9272351,
  "lon": 136.3781712
},
{
  "type": "node",
  "id": 9140728037,
  "lat": -3.9272249,
  "lon": 136.3783871
},
{
  "type": "node",
  "id": 9140728038,
  "lat": -3.9268032,
  "lon": 136.3783672
},
{
  "type": "node",
  "id": 9147436889,
  "lat": -3.8121475,
  "lon": 136.4798396
},
{
  "type": "node",
  "id": 9147436890,
  "lat": -3.8122428,
  "lon": 136.4794175
},
{
  "type": "node",
  "id": 9147436891,
  "lat": -3.8113040,
  "lon": 136.4792218
},
{
  "type": "node",
  "id": 9147436892,
  "lat": -3.8112744,
  "lon": 136.4798227
},
{
  "type": "node",
  "id": 9147436893,
  "lat": -3.8117647,
  "lon": 136.4798350
},
{
  "type": "node",
  "id": 9147436894,
  "lat": -3.8119507,
  "lon": 136.4798381
},
{
  "type": "node",
  "id": 7626093081,
  "lat": -4.5197402,
  "lon": 136.8879275
},
{
  "type": "node",
  "id": 7626093082,
  "lat": -4.5197012,
  "lon": 136.8879517
},
{
  "type": "node",
  "id": 7626093083,
  "lat": -4.5196769,
  "lon": 136.8879121
},
{
  "type": "node",
  "id": 7626093084,
  "lat": -4.5197159,
  "lon": 136.8878879
},
{
  "type": "node",
  "id": 7626093085,
  "lat": -4.5209087,
  "lon": 136.8853129
},
{
  "type": "node",
  "id": 7626093086,
  "lat": -4.5208813,
  "lon": 136.8853251
},
{
  "type": "node",
  "id": 7626093087,
  "lat": -4.5208692,
  "lon": 136.8852956
},
{
  "type": "node",
  "id": 7626093088,
  "lat": -4.5208972,
  "lon": 136.8852843
},
{
  "type": "node",
  "id": 7626365096,
  "lat": -4.5248298,
  "lon": 136.8875923
},
{
  "type": "node",
  "id": 7626365097,
  "lat": -4.5247743,
  "lon": 136.8876258
},
{
  "type": "node",
  "id": 7626365098,
  "lat": -4.5248099,
  "lon": 136.8876853
},
{
  "type": "node",
  "id": 7626365099,
  "lat": -4.5248655,
  "lon": 136.8876519
},
{
  "type": "node",
  "id": 7626365155,
  "lat": -4.5360585,
  "lon": 136.8921716
},
{
  "type": "node",
  "id": 7626365156,
  "lat": -4.5358493,
  "lon": 136.8923038
},
{
  "type": "node",
  "id": 7626365157,
  "lat": -4.5359926,
  "lon": 136.8925510
},
{
  "type": "node",
  "id": 7626365158,
  "lat": -4.5362063,
  "lon": 136.8924263
},
{
  "type": "node",
  "id": 6538615095,
  "lat": -4.4415219,
  "lon": 136.8588135
},
{
  "type": "node",
  "id": 6538615089,
  "lat": -4.4405611,
  "lon": 136.8606349
},
{
  "type": "node",
  "id": 6538615090,
  "lat": -4.4406502,
  "lon": 136.8611065
},
{
  "type": "node",
  "id": 6538615091,
  "lat": -4.4429756,
  "lon": 136.8610644
},
{
  "type": "node",
  "id": 6538615092,
  "lat": -4.4430180,
  "lon": 136.8591957
},
{
  "type": "node",
  "id": 6538615093,
  "lat": -4.4417759,
  "lon": 136.8591674
},
{
  "type": "node",
  "id": 6538615094,
  "lat": -4.4416630,
  "lon": 136.8588560
},
{
  "type": "node",
  "id": 6538615096,
  "lat": -4.4411972,
  "lon": 136.8589550
},
{
  "type": "node",
  "id": 6538615097,
  "lat": -4.4409291,
  "lon": 136.8590258
},
{
  "type": "node",
  "id": 6538615098,
  "lat": -4.4403216,
  "lon": 136.8589519
},
{
  "type": "node",
  "id": 6538615085,
  "lat": -4.4379021,
  "lon": 136.8592119
},
{
  "type": "node",
  "id": 6538615086,
  "lat": -4.4378859,
  "lon": 136.8602608
},
{
  "type": "node",
  "id": 6538615087,
  "lat": -4.4395802,
  "lon": 136.8602771
},
{
  "type": "node",
  "id": 6538615088,
  "lat": -4.4400098,
  "lon": 136.8605210
},
{
  "type": "node",
  "id": 6538615099,
  "lat": -4.4386663,
  "lon": 136.8590297
},
{
  "type": "node",
  "id": 6538615100,
  "lat": -4.4385103,
  "lon": 136.8592175
},
{
  "type": "node",
  "id": 5591834449,
  "lat": -4.1023403,
  "lon": 138.9413502
},
{
  "type": "node",
  "id": 5591834520,
  "lat": -4.1019363,
  "lon": 138.9416085
},
{
  "type": "node",
  "id": 5591834521,
  "lat": -4.1024380,
  "lon": 138.9416700
},
{
  "type": "node",
  "id": 5594979213,
  "lat": -4.0997985,
  "lon": 138.9405216
},
{
  "type": "node",
  "id": 5594979214,
  "lat": -4.1012121,
  "lon": 138.9412533
},
{
  "type": "node",
  "id": 5594979215,
  "lat": -4.1023901,
  "lon": 138.9418084
},
{
  "type": "node",
  "id": 5594979216,
  "lat": -4.1025153,
  "lon": 138.9410155
},
{
  "type": "node",
  "id": 5594979217,
  "lat": -4.1018230,
  "lon": 138.9406497
},
{
  "type": "node",
  "id": 5594979218,
  "lat": -4.1026390,
  "lon": 138.9395419
},
{
  "type": "node",
  "id": 5594979219,
  "lat": -4.1023801,
  "lon": 138.9393113
},
{
  "type": "node",
  "id": 13446313601,
  "lat": -4.1008249,
  "lon": 138.9384750
},
{
  "type": "node",
  "id": 13448598699,
  "lat": -4.1015874,
  "lon": 138.9414219
},
{
  "type": "node",
  "id": 5880086659,
  "lat": -4.0953592,
  "lon": 138.9477756
},
{
  "type": "node",
  "id": 5880086660,
  "lat": -4.0955254,
  "lon": 138.9474590
},
{
  "type": "node",
  "id": 5880086661,
  "lat": -4.0951164,
  "lon": 138.9472433
},
{
  "type": "node",
  "id": 5880086662,
  "lat": -4.0949502,
  "lon": 138.9475599
},
{
  "type": "node",
  "id": 5583539359,
  "lat": -4.0667709,
  "lon": 138.8956031
},
{
  "type": "node",
  "id": 5583539360,
  "lat": -4.0668940,
  "lon": 138.8958036
},
{
  "type": "node",
  "id": 5583539361,
  "lat": -4.0670867,
  "lon": 138.8959484
},
{
  "type": "node",
  "id": 5583539362,
  "lat": -4.0674104,
  "lon": 138.8955354
},
{
  "type": "node",
  "id": 5583539363,
  "lat": -4.0682371,
  "lon": 138.8959806
},
{
  "type": "node",
  "id": 5583539364,
  "lat": -4.0690290,
  "lon": 138.8964607
},
{
  "type": "node",
  "id": 5583539365,
  "lat": -4.0702664,
  "lon": 138.8955112
},
{
  "type": "node",
  "id": 5583539366,
  "lat": -4.0701527,
  "lon": 138.8950955
},
{
  "type": "node",
  "id": 5583539367,
  "lat": -4.0692137,
  "lon": 138.8938026
},
{
  "type": "node",
  "id": 5583539368,
  "lat": -4.0699147,
  "lon": 138.8924937
},
{
  "type": "node",
  "id": 5583539369,
  "lat": -4.0683896,
  "lon": 138.8909488
},
{
  "type": "node",
  "id": 6317377953,
  "lat": -4.0666972,
  "lon": 138.8922936
},
{
  "type": "node",
  "id": 7221564344,
  "lat": -4.0695941,
  "lon": 138.8905227
},
{
  "type": "node",
  "id": 7221564345,
  "lat": -4.0704823,
  "lon": 138.8912952
},
{
  "type": "node",
  "id": 13127040516,
  "lat": -4.0697279,
  "lon": 138.8959850
},
{
  "type": "node",
  "id": 5583539356,
  "lat": -4.0652366,
  "lon": 138.8933574
},
{
  "type": "node",
  "id": 5583539357,
  "lat": -4.0664205,
  "lon": 138.8948460
},
{
  "type": "node",
  "id": 5583539358,
  "lat": -4.0664232,
  "lon": 138.8949667
},
{
  "type": "node",
  "id": 6317377952,
  "lat": -4.0658115,
  "lon": 138.8929373
},
{
  "type": "node",
  "id": 6317377974,
  "lat": -4.0654239,
  "lon": 138.8931949
},
{
  "type": "node",
  "id": 5747040904,
  "lat": -4.8550386,
  "lon": 139.4943980
},
{
  "type": "node",
  "id": 5747040905,
  "lat": -4.8566181,
  "lon": 139.4934170
},
{
  "type": "node",
  "id": 5747040906,
  "lat": -4.8574218,
  "lon": 139.4949166
},
{
  "type": "node",
  "id": 5747040907,
  "lat": -4.8557941,
  "lon": 139.4957446
},
{
  "type": "node",
  "id": 12485932926,
  "lat": -3.3763064,
  "lon": 135.5070583
},
{
  "type": "node",
  "id": 12485932927,
  "lat": -3.3751169,
  "lon": 135.5065352
},
{
  "type": "node",
  "id": 12485932928,
  "lat": -3.3755645,
  "lon": 135.5056465
},
{
  "type": "node",
  "id": 12485932929,
  "lat": -3.3748225,
  "lon": 135.5053044
},
{
  "type": "node",
  "id": 12485932930,
  "lat": -3.3753093,
  "lon": 135.5042387
},
{
  "type": "node",
  "id": 12485932931,
  "lat": -3.3766597,
  "lon": 135.5048797
},
{
  "type": "node",
  "id": 12485932932,
  "lat": -3.3766087,
  "lon": 135.5049937
},
{
  "type": "node",
  "id": 12485932933,
  "lat": -3.3771700,
  "lon": 135.5052651
},
{
  "type": "node",
  "id": 12485932918,
  "lat": -3.3537639,
  "lon": 135.5146131
},
{
  "type": "node",
  "id": 12485932919,
  "lat": -3.3552669,
  "lon": 135.5155674
},
{
  "type": "node",
  "id": 12485932920,
  "lat": -3.3540657,
  "lon": 135.5173279
},
{
  "type": "node",
  "id": 12485932921,
  "lat": -3.3536278,
  "lon": 135.5170019
},
{
  "type": "node",
  "id": 12485932922,
  "lat": -3.3533142,
  "lon": 135.5175057
},
{
  "type": "node",
  "id": 12485932923,
  "lat": -3.3532432,
  "lon": 135.5174642
},
{
  "type": "node",
  "id": 12485932924,
  "lat": -3.3528053,
  "lon": 135.5181815
},
{
  "type": "node",
  "id": 12485932925,
  "lat": -3.3517698,
  "lon": 135.5176954
},
{
  "type": "node",
  "id": 12485932934,
  "lat": -3.3396592,
  "lon": 135.5304348
},
{
  "type": "node",
  "id": 12485932941,
  "lat": -3.3393653,
  "lon": 135.5306703
},
{
  "type": "node",
  "id": 12485932942,
  "lat": -3.3395100,
  "lon": 135.5307428
},
{
  "type": "node",
  "id": 12485932913,
  "lat": -3.3394362,
  "lon": 135.5407938
},
{
  "type": "node",
  "id": 12485932914,
  "lat": -3.3396502,
  "lon": 135.5402354
},
{
  "type": "node",
  "id": 12485932915,
  "lat": -3.3401007,
  "lon": 135.5393375
},
{
  "type": "node",
  "id": 12485932935,
  "lat": -3.3378685,
  "lon": 135.5293929
},
{
  "type": "node",
  "id": 12485932936,
  "lat": -3.3374841,
  "lon": 135.5293159
},
{
  "type": "node",
  "id": 12485932937,
  "lat": -3.3372264,
  "lon": 135.5297870
},
{
  "type": "node",
  "id": 12485932938,
  "lat": -3.3374570,
  "lon": 135.5301585
},
{
  "type": "node",
  "id": 12485932939,
  "lat": -3.3363219,
  "lon": 135.5321742
},
{
  "type": "node",
  "id": 12485932940,
  "lat": -3.3378820,
  "lon": 135.5332432
},
{
  "type": "node",
  "id": 12485932910,
  "lat": -3.3358505,
  "lon": 135.5392481
},
{
  "type": "node",
  "id": 12485932911,
  "lat": -3.3362742,
  "lon": 135.5399048
},
{
  "type": "node",
  "id": 12485932912,
  "lat": -3.3389857,
  "lon": 135.5414729
},
{
  "type": "node",
  "id": 12485932916,
  "lat": -3.3390303,
  "lon": 135.5387523
},
{
  "type": "node",
  "id": 12485932917,
  "lat": -3.3372687,
  "lon": 135.5373093
},
{
  "type": "node",
  "id": 10689739657,
  "lat": -1.1784806,
  "lon": 136.0589742
},
{
  "type": "node",
  "id": 10689739658,
  "lat": -1.1780087,
  "lon": 136.0583390
},
{
  "type": "node",
  "id": 10689739659,
  "lat": -1.1774166,
  "lon": 136.0572662
},
{
  "type": "node",
  "id": 10689739660,
  "lat": -1.1773393,
  "lon": 136.0564851
},
{
  "type": "node",
  "id": 10689739661,
  "lat": -1.1770132,
  "lon": 136.0559701
},
{
  "type": "node",
  "id": 10689739653,
  "lat": -1.1811580,
  "lon": 136.0652570
},
{
  "type": "node",
  "id": 10689739654,
  "lat": -1.1801626,
  "lon": 136.0632571
},
{
  "type": "node",
  "id": 10689739655,
  "lat": -1.1796477,
  "lon": 136.0613946
},
{
  "type": "node",
  "id": 10689739656,
  "lat": -1.1788840,
  "lon": 136.0602101
},
{
  "type": "node",
  "id": 10689739650,
  "lat": -1.1820590,
  "lon": 136.0687846
},
{
  "type": "node",
  "id": 10689739651,
  "lat": -1.1821963,
  "lon": 136.0681924
},
{
  "type": "node",
  "id": 10689739652,
  "lat": -1.1816042,
  "lon": 136.0665273
},
{
  "type": "node",
  "id": 10689739669,
  "lat": -1.1802484,
  "lon": 136.0718230
},
{
  "type": "node",
  "id": 10689739670,
  "lat": -1.1812695,
  "lon": 136.0713081
},
{
  "type": "node",
  "id": 10689739671,
  "lat": -1.1828076,
  "lon": 136.0707966
},
{
  "type": "node",
  "id": 1704661584,
  "lat": -1.1723171,
  "lon": 136.0548807
},
{
  "type": "node",
  "id": 7010118743,
  "lat": -1.1700582,
  "lon": 136.0570750
},
{
  "type": "node",
  "id": 10689739662,
  "lat": -1.1750224,
  "lon": 136.0543994
},
{
  "type": "node",
  "id": 10689739663,
  "lat": -1.1742158,
  "lon": 136.0533523
},
{
  "type": "node",
  "id": 10689739664,
  "lat": -1.1707731,
  "lon": 136.0562918
},
{
  "type": "node",
  "id": 10689739665,
  "lat": -1.1708524,
  "lon": 136.0585248
},
{
  "type": "node",
  "id": 10689739666,
  "lat": -1.1736138,
  "lon": 136.0625103
},
{
  "type": "node",
  "id": 10689739667,
  "lat": -1.1722850,
  "lon": 136.0641669
},
{
  "type": "node",
  "id": 2068645383,
  "lat": -1.1742316,
  "lon": 136.0712208
},
{
  "type": "node",
  "id": 10689739668,
  "lat": -1.1719846,
  "lon": 136.0682954
},
{
  "type": "node",
  "id": 1696749379,
  "lat": -1.1752160,
  "lon": 136.0735629
},
{
  "type": "node",
  "id": 5227755416,
  "lat": -2.6279371,
  "lon": 140.3438270
},
{
  "type": "node",
  "id": 5227755417,
  "lat": -2.6279720,
  "lon": 140.3439718
},
{
  "type": "node",
  "id": 5227755418,
  "lat": -2.6278527,
  "lon": 140.3440006
},
{
  "type": "node",
  "id": 5227755419,
  "lat": -2.6278179,
  "lon": 140.3438557
},
{
  "type": "node",
  "id": 5671193883,
  "lat": -2.5605831,
  "lon": 140.4953413
},
{
  "type": "node",
  "id": 5671193884,
  "lat": -2.5603044,
  "lon": 140.4952018
},
{
  "type": "node",
  "id": 5671193882,
  "lat": -2.5622658,
  "lon": 140.4993860
},
{
  "type": "node",
  "id": 5671193886,
  "lat": -2.5593826,
  "lon": 140.5000512
},
{
  "type": "node",
  "id": 5671193889,
  "lat": -2.5607867,
  "lon": 140.5020039
},
{
  "type": "node",
  "id": 5671193890,
  "lat": -2.5611190,
  "lon": 140.5021326
},
{
  "type": "node",
  "id": 5671193891,
  "lat": -2.5622337,
  "lon": 140.5020146
},
{
  "type": "node",
  "id": 5671193892,
  "lat": -2.5621158,
  "lon": 140.5011885
},
{
  "type": "node",
  "id": 5671193893,
  "lat": -2.5614941,
  "lon": 140.4995577
},
{
  "type": "node",
  "id": 5671193885,
  "lat": -2.5577428,
  "lon": 140.4961137
},
{
  "type": "node",
  "id": 5671193887,
  "lat": -2.5575713,
  "lon": 140.5008130
},
{
  "type": "node",
  "id": 5671193888,
  "lat": -2.5580965,
  "lon": 140.5026476
},
{
  "type": "node",
  "id": 10285018427,
  "lat": -2.5544791,
  "lon": 140.6790086
},
{
  "type": "node",
  "id": 10285018428,
  "lat": -2.5540718,
  "lon": 140.6786545
},
{
  "type": "node",
  "id": 10285018429,
  "lat": -2.5537181,
  "lon": 140.6783756
},
{
  "type": "node",
  "id": 10285018430,
  "lat": -2.5531500,
  "lon": 140.6784400
},
{
  "type": "node",
  "id": 10285018431,
  "lat": -2.5529678,
  "lon": 140.6778821
},
{
  "type": "node",
  "id": 10285018432,
  "lat": -2.5526677,
  "lon": 140.6775602
},
{
  "type": "node",
  "id": 7069010973,
  "lat": -2.5527492,
  "lon": 140.6800451
},
{
  "type": "node",
  "id": 7069010974,
  "lat": -2.5528847,
  "lon": 140.6800472
},
{
  "type": "node",
  "id": 7069010975,
  "lat": -2.5528869,
  "lon": 140.6799116
},
{
  "type": "node",
  "id": 7069010976,
  "lat": -2.5527514,
  "lon": 140.6799094
},
{
  "type": "node",
  "id": 10285018417,
  "lat": -2.5554759,
  "lon": 140.6856927
},
{
  "type": "node",
  "id": 10285018418,
  "lat": -2.5556474,
  "lon": 140.6846305
},
{
  "type": "node",
  "id": 10285018419,
  "lat": -2.5557010,
  "lon": 140.6839760
},
{
  "type": "node",
  "id": 10285018420,
  "lat": -2.5553044,
  "lon": 140.6835254
},
{
  "type": "node",
  "id": 10285018421,
  "lat": -2.5547363,
  "lon": 140.6834181
},
{
  "type": "node",
  "id": 10285018422,
  "lat": -2.5544684,
  "lon": 140.6832572
},
{
  "type": "node",
  "id": 10285018423,
  "lat": -2.5540504,
  "lon": 140.6824096
},
{
  "type": "node",
  "id": 10285018424,
  "lat": -2.5540075,
  "lon": 140.6818517
},
{
  "type": "node",
  "id": 10285018425,
  "lat": -2.5545220,
  "lon": 140.6810578
},
{
  "type": "node",
  "id": 10285018426,
  "lat": -2.5546077,
  "lon": 140.6801244
},
{
  "type": "node",
  "id": 10288977682,
  "lat": -2.5529359,
  "lon": 140.6813392
},
{
  "type": "node",
  "id": 10288977683,
  "lat": -2.5530646,
  "lon": 140.6815108
},
{
  "type": "node",
  "id": 10288977684,
  "lat": -2.5531449,
  "lon": 140.6816557
},
{
  "type": "node",
  "id": 10288977685,
  "lat": -2.5530699,
  "lon": 140.6817362
},
{
  "type": "node",
  "id": 10288977686,
  "lat": -2.5529681,
  "lon": 140.6816986
},
{
  "type": "node",
  "id": 10288977687,
  "lat": -2.5528180,
  "lon": 140.6816020
},
{
  "type": "node",
  "id": 10288977688,
  "lat": -2.5526626,
  "lon": 140.6816235
},
{
  "type": "node",
  "id": 10288977689,
  "lat": -2.5526251,
  "lon": 140.6817040
},
{
  "type": "node",
  "id": 10288977691,
  "lat": -2.5526466,
  "lon": 140.6822029
},
{
  "type": "node",
  "id": 10288977692,
  "lat": -2.5528556,
  "lon": 140.6824603
},
{
  "type": "node",
  "id": 10288977693,
  "lat": -2.5530378,
  "lon": 140.6826642
},
{
  "type": "node",
  "id": 10288977694,
  "lat": -2.5530806,
  "lon": 140.6828305
},
{
  "type": "node",
  "id": 10288977695,
  "lat": -2.5532093,
  "lon": 140.6831845
},
{
  "type": "node",
  "id": 10288977696,
  "lat": -2.5533379,
  "lon": 140.6832757
},
{
  "type": "node",
  "id": 10288977697,
  "lat": -2.5534611,
  "lon": 140.6833991
},
{
  "type": "node",
  "id": 10288977698,
  "lat": -2.5536380,
  "lon": 140.6835976
},
{
  "type": "node",
  "id": 10288977699,
  "lat": -2.5536755,
  "lon": 140.6837049
},
{
  "type": "node",
  "id": 10288977700,
  "lat": -2.5536755,
  "lon": 140.6838873
},
{
  "type": "node",
  "id": 10288977701,
  "lat": -2.5538202,
  "lon": 140.6840804
},
{
  "type": "node",
  "id": 10288977702,
  "lat": -2.5539917,
  "lon": 140.6842199
},
{
  "type": "node",
  "id": 10288977703,
  "lat": -2.5542328,
  "lon": 140.6843647
},
{
  "type": "node",
  "id": 10288977704,
  "lat": -2.5543454,
  "lon": 140.6845149
},
{
  "type": "node",
  "id": 10288977705,
  "lat": -2.5545276,
  "lon": 140.6847349
},
{
  "type": "node",
  "id": 10288977706,
  "lat": -2.5545651,
  "lon": 140.6848422
},
{
  "type": "node",
  "id": 10288977707,
  "lat": -2.5544151,
  "lon": 140.6848797
},
{
  "type": "node",
  "id": 10288977708,
  "lat": -2.5543454,
  "lon": 140.6847617
},
{
  "type": "node",
  "id": 10288977709,
  "lat": -2.5541471,
  "lon": 140.6846008
},
{
  "type": "node",
  "id": 10288977710,
  "lat": -2.5539381,
  "lon": 140.6845471
},
{
  "type": "node",
  "id": 10288977711,
  "lat": -2.5538202,
  "lon": 140.6846544
},
{
  "type": "node",
  "id": 10288977712,
  "lat": -2.5537452,
  "lon": 140.6849548
},
{
  "type": "node",
  "id": 10288977713,
  "lat": -2.5537773,
  "lon": 140.6850889
},
{
  "type": "node",
  "id": 10288977714,
  "lat": -2.5538470,
  "lon": 140.6851694
},
{
  "type": "node",
  "id": 10288977715,
  "lat": -2.5537934,
  "lon": 140.6854108
},
{
  "type": "node",
  "id": 10288977716,
  "lat": -2.5536862,
  "lon": 140.6856736
},
{
  "type": "node",
  "id": 10288977717,
  "lat": -2.5536380,
  "lon": 140.6859150
},
{
  "type": "node",
  "id": 10288978043,
  "lat": -2.5531036,
  "lon": 140.6798128
},
{
  "type": "node",
  "id": 10288978044,
  "lat": -2.5531498,
  "lon": 140.6798929
},
{
  "type": "node",
  "id": 10288978045,
  "lat": -2.5533068,
  "lon": 140.6799330
},
{
  "type": "node",
  "id": 10288978046,
  "lat": -2.5535284,
  "lon": 140.6800100
},
{
  "type": "node",
  "id": 10288978047,
  "lat": -2.5537900,
  "lon": 140.6802287
},
{
  "type": "node",
  "id": 10288978048,
  "lat": -2.5538300,
  "lon": 140.6803551
},
{
  "type": "node",
  "id": 10288978049,
  "lat": -2.5537746,
  "lon": 140.6805368
},
{
  "type": "node",
  "id": 10288978050,
  "lat": -2.5537285,
  "lon": 140.6806447
},
{
  "type": "node",
  "id": 10288978051,
  "lat": -2.5535776,
  "lon": 140.6806354
},
{
  "type": "node",
  "id": 10288978052,
  "lat": -2.5534022,
  "lon": 140.6806632
},
{
  "type": "node",
  "id": 10288978053,
  "lat": -2.5533006,
  "lon": 140.6807710
},
{
  "type": "node",
  "id": 10288978054,
  "lat": -2.5532144,
  "lon": 140.6808604
},
{
  "type": "node",
  "id": 10288978055,
  "lat": -2.5531067,
  "lon": 140.6810421
},
{
  "type": "node",
  "id": 10288978056,
  "lat": -2.5530482,
  "lon": 140.6810606
},
{
  "type": "node",
  "id": 10288978057,
  "lat": -2.5530082,
  "lon": 140.6811068
},
{
  "type": "node",
  "id": 10288978058,
  "lat": -2.5529867,
  "lon": 140.6812270
},
{
  "type": "node",
  "id": 10288978120,
  "lat": -2.5528973,
  "lon": 140.6859289
},
{
  "type": "node",
  "id": 10288978121,
  "lat": -2.5529206,
  "lon": 140.6857375
},
{
  "type": "node",
  "id": 10288978122,
  "lat": -2.5529766,
  "lon": 140.6856254
},
{
  "type": "node",
  "id": 10288978123,
  "lat": -2.5529393,
  "lon": 140.6854666
},
{
  "type": "node",
  "id": 10288978124,
  "lat": -2.5529393,
  "lon": 140.6852191
},
{
  "type": "node",
  "id": 10288978125,
  "lat": -2.5529953,
  "lon": 140.6851210
},
{
  "type": "node",
  "id": 10288978126,
  "lat": -2.5530653,
  "lon": 140.6850323
},
{
  "type": "node",
  "id": 10288978127,
  "lat": -2.5531306,
  "lon": 140.6849762
},
{
  "type": "node",
  "id": 10288978128,
  "lat": -2.5531586,
  "lon": 140.6848595
},
{
  "type": "node",
  "id": 10288978129,
  "lat": -2.5531632,
  "lon": 140.6846400
},
{
  "type": "node",
  "id": 10288978130,
  "lat": -2.5530933,
  "lon": 140.6843551
},
{
  "type": "node",
  "id": 10288978131,
  "lat": -2.5530186,
  "lon": 140.6840563
},
{
  "type": "node",
  "id": 10288978132,
  "lat": -2.5529580,
  "lon": 140.6838414
},
{
  "type": "node",
  "id": 10288978133,
  "lat": -2.5528647,
  "lon": 140.6836126
},
{
  "type": "node",
  "id": 10288978134,
  "lat": -2.5528273,
  "lon": 140.6834678
},
{
  "type": "node",
  "id": 10288978135,
  "lat": -2.5528600,
  "lon": 140.6834118
},
{
  "type": "node",
  "id": 10288978136,
  "lat": -2.5528693,
  "lon": 140.6833044
},
{
  "type": "node",
  "id": 10288978137,
  "lat": -2.5527340,
  "lon": 140.6831456
},
{
  "type": "node",
  "id": 10288978138,
  "lat": -2.5526454,
  "lon": 140.6830102
},
{
  "type": "node",
  "id": 10288978173,
  "lat": -2.5528659,
  "lon": 140.6798064
},
{
  "type": "node",
  "id": 10288978174,
  "lat": -2.5526839,
  "lon": 140.6798204
},
{
  "type": "node",
  "id": 10288978175,
  "lat": -2.5526746,
  "lon": 140.6799371
},
{
  "type": "node",
  "id": 5424028243,
  "lat": -2.5534483,
  "lon": 140.6889998
},
{
  "type": "node",
  "id": 5424028244,
  "lat": -2.5534590,
  "lon": 140.6891285
},
{
  "type": "node",
  "id": 5424028245,
  "lat": -2.5533898,
  "lon": 140.6891343
},
{
  "type": "node",
  "id": 5424028246,
  "lat": -2.5533791,
  "lon": 140.6890055
},
{
  "type": "node",
  "id": 5424028247,
  "lat": -2.5527601,
  "lon": 140.6897111
},
{
  "type": "node",
  "id": 5424028248,
  "lat": -2.5528941,
  "lon": 140.6897192
},
{
  "type": "node",
  "id": 5424028249,
  "lat": -2.5528968,
  "lon": 140.6896734
},
{
  "type": "node",
  "id": 5424028250,
  "lat": -2.5527628,
  "lon": 140.6896654
},
{
  "type": "node",
  "id": 5424028251,
  "lat": -2.5527717,
  "lon": 140.6895907
},
{
  "type": "node",
  "id": 5424028252,
  "lat": -2.5528923,
  "lon": 140.6895960
},
{
  "type": "node",
  "id": 5424028253,
  "lat": -2.5528941,
  "lon": 140.6895554
},
{
  "type": "node",
  "id": 5424028254,
  "lat": -2.5527736,
  "lon": 140.6895500
},
{
  "type": "node",
  "id": 5424028278,
  "lat": -2.5531518,
  "lon": 140.6885592
},
{
  "type": "node",
  "id": 5424028279,
  "lat": -2.5531813,
  "lon": 140.6886423
},
{
  "type": "node",
  "id": 5424028280,
  "lat": -2.5530120,
  "lon": 140.6887024
},
{
  "type": "node",
  "id": 5424028281,
  "lat": -2.5529826,
  "lon": 140.6886193
},
{
  "type": "node",
  "id": 5424028282,
  "lat": -2.5532189,
  "lon": 140.6890625
},
{
  "type": "node",
  "id": 5424028283,
  "lat": -2.5532430,
  "lon": 140.6893334
},
{
  "type": "node",
  "id": 5424028284,
  "lat": -2.5531594,
  "lon": 140.6893408
},
{
  "type": "node",
  "id": 5424028285,
  "lat": -2.5531353,
  "lon": 140.6890699
},
{
  "type": "node",
  "id": 5424028286,
  "lat": -2.5539262,
  "lon": 140.6888153
},
{
  "type": "node",
  "id": 5424028287,
  "lat": -2.5541299,
  "lon": 140.6888341
},
{
  "type": "node",
  "id": 5424028288,
  "lat": -2.5541441,
  "lon": 140.6886797
},
{
  "type": "node",
  "id": 5424028289,
  "lat": -2.5539404,
  "lon": 140.6886609
},
{
  "type": "node",
  "id": 5424028290,
  "lat": -2.5539633,
  "lon": 140.6886542
},
{
  "type": "node",
  "id": 5424028291,
  "lat": -2.5541435,
  "lon": 140.6886633
},
{
  "type": "node",
  "id": 5424028292,
  "lat": -2.5541503,
  "lon": 140.6885297
},
{
  "type": "node",
  "id": 5424028293,
  "lat": -2.5539700,
  "lon": 140.6885206
},
{
  "type": "node",
  "id": 5424028294,
  "lat": -2.5539442,
  "lon": 140.6885040
},
{
  "type": "node",
  "id": 5424028295,
  "lat": -2.5541795,
  "lon": 140.6885077
},
{
  "type": "node",
  "id": 5424028296,
  "lat": -2.5541815,
  "lon": 140.6883846
},
{
  "type": "node",
  "id": 5424028297,
  "lat": -2.5539462,
  "lon": 140.6883809
},
{
  "type": "node",
  "id": 5424028298,
  "lat": -2.5539759,
  "lon": 140.6883435
},
{
  "type": "node",
  "id": 5424028299,
  "lat": -2.5541711,
  "lon": 140.6883505
},
{
  "type": "node",
  "id": 5424028300,
  "lat": -2.5541753,
  "lon": 140.6882315
},
{
  "type": "node",
  "id": 5424028301,
  "lat": -2.5539801,
  "lon": 140.6882246
},
{
  "type": "node",
  "id": 5424028302,
  "lat": -2.5539884,
  "lon": 140.6882090
},
{
  "type": "node",
  "id": 5424028303,
  "lat": -2.5542028,
  "lon": 140.6882170
},
{
  "type": "node",
  "id": 5424028304,
  "lat": -2.5542071,
  "lon": 140.6881017
},
{
  "type": "node",
  "id": 5424028305,
  "lat": -2.5539928,
  "lon": 140.6880936
},
{
  "type": "node",
  "id": 5424028306,
  "lat": -2.5532369,
  "lon": 140.6883032
},
{
  "type": "node",
  "id": 5424028307,
  "lat": -2.5532744,
  "lon": 140.6885178
},
{
  "type": "node",
  "id": 5424028308,
  "lat": -2.5532157,
  "lon": 140.6885281
},
{
  "type": "node",
  "id": 5424028309,
  "lat": -2.5531782,
  "lon": 140.6883135
},
{
  "type": "node",
  "id": 5424028310,
  "lat": -2.5531602,
  "lon": 140.6883746
},
{
  "type": "node",
  "id": 5424028311,
  "lat": -2.5531843,
  "lon": 140.6885195
},
{
  "type": "node",
  "id": 5424028312,
  "lat": -2.5530522,
  "lon": 140.6885415
},
{
  "type": "node",
  "id": 5424028313,
  "lat": -2.5530281,
  "lon": 140.6883967
},
{
  "type": "node",
  "id": 5424028314,
  "lat": -2.5536181,
  "lon": 140.6885275
},
{
  "type": "node",
  "id": 5424028315,
  "lat": -2.5535967,
  "lon": 140.6887850
},
{
  "type": "node",
  "id": 5424028316,
  "lat": -2.5535077,
  "lon": 140.6887775
},
{
  "type": "node",
  "id": 5424028317,
  "lat": -2.5535292,
  "lon": 140.6885201
},
{
  "type": "node",
  "id": 5424028318,
  "lat": -2.5536500,
  "lon": 140.6880617
},
{
  "type": "node",
  "id": 5424028319,
  "lat": -2.5536286,
  "lon": 140.6884184
},
{
  "type": "node",
  "id": 5424028320,
  "lat": -2.5535345,
  "lon": 140.6884128
},
{
  "type": "node",
  "id": 5424028321,
  "lat": -2.5535560,
  "lon": 140.6880560
},
{
  "type": "node",
  "id": 5424028322,
  "lat": -2.5537523,
  "lon": 140.6876411
},
{
  "type": "node",
  "id": 5424028323,
  "lat": -2.5537282,
  "lon": 140.6878423
},
{
  "type": "node",
  "id": 5424028324,
  "lat": -2.5536096,
  "lon": 140.6878280
},
{
  "type": "node",
  "id": 5424028325,
  "lat": -2.5536337,
  "lon": 140.6876269
},
{
  "type": "node",
  "id": 5424028326,
  "lat": -2.5539252,
  "lon": 140.6876350
},
{
  "type": "node",
  "id": 5424028327,
  "lat": -2.5539019,
  "lon": 140.6878477
},
{
  "type": "node",
  "id": 5424028328,
  "lat": -2.5538033,
  "lon": 140.6878369
},
{
  "type": "node",
  "id": 5424028329,
  "lat": -2.5538266,
  "lon": 140.6876242
},
{
  "type": "node",
  "id": 5424028350,
  "lat": -2.5526583,
  "lon": 140.6863463
},
{
  "type": "node",
  "id": 7130138486,
  "lat": -2.5538347,
  "lon": 140.6885149
},
{
  "type": "node",
  "id": 9779379973,
  "lat": -2.5537307,
  "lon": 140.6885030
},
{
  "type": "node",
  "id": 9779379974,
  "lat": -2.5538043,
  "lon": 140.6887826
},
{
  "type": "node",
  "id": 9779379975,
  "lat": -2.5537004,
  "lon": 140.6887708
},
{
  "type": "node",
  "id": 10285008101,
  "lat": -2.5533617,
  "lon": 140.6924339
},
{
  "type": "node",
  "id": 10285008102,
  "lat": -2.5534756,
  "lon": 140.6922983
},
{
  "type": "node",
  "id": 10285008103,
  "lat": -2.5537834,
  "lon": 140.6920857
},
{
  "type": "node",
  "id": 10285008104,
  "lat": -2.5538142,
  "lon": 140.6920025
},
{
  "type": "node",
  "id": 10285008105,
  "lat": -2.5537803,
  "lon": 140.6917530
},
{
  "type": "node",
  "id": 10285008106,
  "lat": -2.5534972,
  "lon": 140.6915712
},
{
  "type": "node",
  "id": 10285008107,
  "lat": -2.5532725,
  "lon": 140.6913309
},
{
  "type": "node",
  "id": 10285008108,
  "lat": -2.5532232,
  "lon": 140.6906469
},
{
  "type": "node",
  "id": 10285018409,
  "lat": -2.5531894,
  "lon": 140.6901169
},
{
  "type": "node",
  "id": 10285018410,
  "lat": -2.5533186,
  "lon": 140.6896086
},
{
  "type": "node",
  "id": 10285018411,
  "lat": -2.5536824,
  "lon": 140.6895629
},
{
  "type": "node",
  "id": 10285018412,
  "lat": -2.5540147,
  "lon": 140.6894503
},
{
  "type": "node",
  "id": 10285018413,
  "lat": -2.5544059,
  "lon": 140.6892196
},
{
  "type": "node",
  "id": 10285018414,
  "lat": -2.5546096,
  "lon": 140.6882218
},
{
  "type": "node",
  "id": 10285018415,
  "lat": -2.5546720,
  "lon": 140.6872483
},
{
  "type": "node",
  "id": 10285018416,
  "lat": -2.5550043,
  "lon": 140.6867226
},
{
  "type": "node",
  "id": 10288977718,
  "lat": -2.5534236,
  "lon": 140.6861672
},
{
  "type": "node",
  "id": 10288977719,
  "lat": -2.5532307,
  "lon": 140.6862691
},
{
  "type": "node",
  "id": 10288977720,
  "lat": -2.5531449,
  "lon": 140.6863281
},
{
  "type": "node",
  "id": 10288977721,
  "lat": -2.5531182,
  "lon": 140.6864461
},
{
  "type": "node",
  "id": 10288977722,
  "lat": -2.5532950,
  "lon": 140.6865695
},
{
  "type": "node",
  "id": 10288977723,
  "lat": -2.5532575,
  "lon": 140.6866768
},
{
  "type": "node",
  "id": 10288977724,
  "lat": -2.5531449,
  "lon": 140.6866607
},
{
  "type": "node",
  "id": 10288977725,
  "lat": -2.5530485,
  "lon": 140.6866661
},
{
  "type": "node",
  "id": 10288977726,
  "lat": -2.5530324,
  "lon": 140.6867733
},
{
  "type": "node",
  "id": 10288977727,
  "lat": -2.5530646,
  "lon": 140.6868806
},
{
  "type": "node",
  "id": 10288977728,
  "lat": -2.5530217,
  "lon": 140.6871328
},
{
  "type": "node",
  "id": 10288977729,
  "lat": -2.5530806,
  "lon": 140.6872400
},
{
  "type": "node",
  "id": 10288977730,
  "lat": -2.5531932,
  "lon": 140.6873259
},
{
  "type": "node",
  "id": 10288977731,
  "lat": -2.5532843,
  "lon": 140.6873473
},
{
  "type": "node",
  "id": 10288977732,
  "lat": -2.5532146,
  "lon": 140.6874814
},
{
  "type": "node",
  "id": 10288977733,
  "lat": -2.5532361,
  "lon": 140.6876209
},
{
  "type": "node",
  "id": 10288978100,
  "lat": -2.5530233,
  "lon": 140.6875961
},
{
  "type": "node",
  "id": 10288978101,
  "lat": -2.5529440,
  "lon": 140.6879931
},
{
  "type": "node",
  "id": 10288978102,
  "lat": -2.5529020,
  "lon": 140.6880771
},
{
  "type": "node",
  "id": 10288978103,
  "lat": -2.5528973,
  "lon": 140.6882919
},
{
  "type": "node",
  "id": 10288978104,
  "lat": -2.5528647,
  "lon": 140.6884320
},
{
  "type": "node",
  "id": 10288978105,
  "lat": -2.5527060,
  "lon": 140.6884461
},
{
  "type": "node",
  "id": 10288978106,
  "lat": -2.5526454,
  "lon": 140.6881705
},
{
  "type": "node",
  "id": 10288978108,
  "lat": -2.5526687,
  "lon": 140.6877736
},
{
  "type": "node",
  "id": 10288978109,
  "lat": -2.5526874,
  "lon": 140.6876101
},
{
  "type": "node",
  "id": 10288978110,
  "lat": -2.5527807,
  "lon": 140.6875774
},
{
  "type": "node",
  "id": 10288978111,
  "lat": -2.5528413,
  "lon": 140.6875121
},
{
  "type": "node",
  "id": 10288978112,
  "lat": -2.5528180,
  "lon": 140.6873673
},
{
  "type": "node",
  "id": 10288978113,
  "lat": -2.5527294,
  "lon": 140.6872879
},
{
  "type": "node",
  "id": 10288978114,
  "lat": -2.5527107,
  "lon": 140.6870497
},
{
  "type": "node",
  "id": 10288978115,
  "lat": -2.5527573,
  "lon": 140.6869750
},
{
  "type": "node",
  "id": 10288978116,
  "lat": -2.5528087,
  "lon": 140.6869050
},
{
  "type": "node",
  "id": 10288978117,
  "lat": -2.5528786,
  "lon": 140.6868022
},
{
  "type": "node",
  "id": 10288978118,
  "lat": -2.5529766,
  "lon": 140.6863632
},
{
  "type": "node",
  "id": 10288978119,
  "lat": -2.5529766,
  "lon": 140.6861764
},
{
  "type": "node",
  "id": 10747594211,
  "lat": -2.5540419,
  "lon": 140.6876802
},
{
  "type": "node",
  "id": 10747594212,
  "lat": -2.5540384,
  "lon": 140.6877122
},
{
  "type": "node",
  "id": 10747594213,
  "lat": -2.5540771,
  "lon": 140.6877165
},
{
  "type": "node",
  "id": 10747594214,
  "lat": -2.5540705,
  "lon": 140.6877771
},
{
  "type": "node",
  "id": 10747594215,
  "lat": -2.5539789,
  "lon": 140.6877671
},
{
  "type": "node",
  "id": 10747594216,
  "lat": -2.5539890,
  "lon": 140.6876744
},
{
  "type": "node",
  "id": 10747594217,
  "lat": -2.5540987,
  "lon": 140.6875569
},
{
  "type": "node",
  "id": 10747594218,
  "lat": -2.5540852,
  "lon": 140.6876805
},
{
  "type": "node",
  "id": 10747594219,
  "lat": -2.5539899,
  "lon": 140.6876701
},
{
  "type": "node",
  "id": 10747594220,
  "lat": -2.5540035,
  "lon": 140.6875464
},
{
  "type": "node",
  "id": 10747594221,
  "lat": -2.5538416,
  "lon": 140.6883455
},
{
  "type": "node",
  "id": 10747594222,
  "lat": -2.5538253,
  "lon": 140.6884892
},
{
  "type": "node",
  "id": 10747594223,
  "lat": -2.5537447,
  "lon": 140.6884801
},
{
  "type": "node",
  "id": 10747594224,
  "lat": -2.5537610,
  "lon": 140.6883363
},
{
  "type": "node",
  "id": 10285008100,
  "lat": -2.5529831,
  "lon": 140.6927790
},
{
  "type": "node",
  "id": 10285018433,
  "lat": -2.5519925,
  "lon": 140.6776353
},
{
  "type": "node",
  "id": 10285018434,
  "lat": -2.5515745,
  "lon": 140.6778606
},
{
  "type": "node",
  "id": 10285018435,
  "lat": -2.5512851,
  "lon": 140.6783970
},
{
  "type": "node",
  "id": 10285018436,
  "lat": -2.5511672,
  "lon": 140.6787726
},
{
  "type": "node",
  "id": 10285018437,
  "lat": -2.5511350,
  "lon": 140.6794485
},
{
  "type": "node",
  "id": 4893006445,
  "lat": -2.5512596,
  "lon": 140.6861068
},
{
  "type": "node",
  "id": 5424028362,
  "lat": -2.5523393,
  "lon": 140.6859129
},
{
  "type": "node",
  "id": 5424028363,
  "lat": -2.5524358,
  "lon": 140.6861194
},
{
  "type": "node",
  "id": 5424028365,
  "lat": -2.5521787,
  "lon": 140.6859880
},
{
  "type": "node",
  "id": 5424028366,
  "lat": -2.5520887,
  "lon": 140.6854357
},
{
  "type": "node",
  "id": 5424028367,
  "lat": -2.5523888,
  "lon": 140.6855269
},
{
  "type": "node",
  "id": 5424028368,
  "lat": -2.5524279,
  "lon": 140.6853980
},
{
  "type": "node",
  "id": 5424028369,
  "lat": -2.5521278,
  "lon": 140.6853068
},
{
  "type": "node",
  "id": 7069010766,
  "lat": -2.5514449,
  "lon": 140.6810112
},
{
  "type": "node",
  "id": 7069010767,
  "lat": -2.5515246,
  "lon": 140.6809869
},
{
  "type": "node",
  "id": 7069010768,
  "lat": -2.5515000,
  "lon": 140.6809063
},
{
  "type": "node",
  "id": 7069010769,
  "lat": -2.5514204,
  "lon": 140.6809307
},
{
  "type": "node",
  "id": 10285018438,
  "lat": -2.5514030,
  "lon": 140.6798132
},
{
  "type": "node",
  "id": 10285018439,
  "lat": -2.5513815,
  "lon": 140.6800922
},
{
  "type": "node",
  "id": 10285018440,
  "lat": -2.5512636,
  "lon": 140.6803497
},
{
  "type": "node",
  "id": 10285018441,
  "lat": -2.5510171,
  "lon": 140.6808539
},
{
  "type": "node",
  "id": 10285018442,
  "lat": -2.5508671,
  "lon": 140.6820770
},
{
  "type": "node",
  "id": 10285018443,
  "lat": -2.5508563,
  "lon": 140.6828173
},
{
  "type": "node",
  "id": 10285018444,
  "lat": -2.5509742,
  "lon": 140.6835147
},
{
  "type": "node",
  "id": 10285018445,
  "lat": -2.5509957,
  "lon": 140.6842013
},
{
  "type": "node",
  "id": 10285018446,
  "lat": -2.5508456,
  "lon": 140.6848987
},
{
  "type": "node",
  "id": 10285018447,
  "lat": -2.5503419,
  "lon": 140.6853922
},
{
  "type": "node",
  "id": 10285018448,
  "lat": -2.5499774,
  "lon": 140.6859287
},
{
  "type": "node",
  "id": 10288977690,
  "lat": -2.5525876,
  "lon": 140.6819668
},
{
  "type": "node",
  "id": 10288977908,
  "lat": -2.5521064,
  "lon": 140.6850598
},
{
  "type": "node",
  "id": 10288977909,
  "lat": -2.5520417,
  "lon": 140.6849890
},
{
  "type": "node",
  "id": 10288977910,
  "lat": -2.5521587,
  "lon": 140.6848904
},
{
  "type": "node",
  "id": 10288977911,
  "lat": -2.5521895,
  "lon": 140.6848010
},
{
  "type": "node",
  "id": 10288977912,
  "lat": -2.5521741,
  "lon": 140.6846993
},
{
  "type": "node",
  "id": 10288977913,
  "lat": -2.5520079,
  "lon": 140.6845669
},
{
  "type": "node",
  "id": 10288977914,
  "lat": -2.5518724,
  "lon": 140.6845145
},
{
  "type": "node",
  "id": 10288977915,
  "lat": -2.5518047,
  "lon": 140.6844066
},
{
  "type": "node",
  "id": 10288977916,
  "lat": -2.5517893,
  "lon": 140.6842002
},
{
  "type": "node",
  "id": 10288977917,
  "lat": -2.5518601,
  "lon": 140.6841540
},
{
  "type": "node",
  "id": 10288977918,
  "lat": -2.5519278,
  "lon": 140.6842279
},
{
  "type": "node",
  "id": 10288977919,
  "lat": -2.5519525,
  "lon": 140.6841694
},
{
  "type": "node",
  "id": 10288977920,
  "lat": -2.5519032,
  "lon": 140.6838705
},
{
  "type": "node",
  "id": 10288977921,
  "lat": -2.5518478,
  "lon": 140.6836087
},
{
  "type": "node",
  "id": 10288977922,
  "lat": -2.5517462,
  "lon": 140.6833498
},
{
  "type": "node",
  "id": 10288977923,
  "lat": -2.5516662,
  "lon": 140.6832174
},
{
  "type": "node",
  "id": 10288977924,
  "lat": -2.5516139,
  "lon": 140.6832451
},
{
  "type": "node",
  "id": 10288977925,
  "lat": -2.5515923,
  "lon": 140.6833160
},
{
  "type": "node",
  "id": 10288977926,
  "lat": -2.5515800,
  "lon": 140.6833622
},
{
  "type": "node",
  "id": 10288977927,
  "lat": -2.5515092,
  "lon": 140.6833498
},
{
  "type": "node",
  "id": 10288977928,
  "lat": -2.5512784,
  "lon": 140.6832389
},
{
  "type": "node",
  "id": 10288977929,
  "lat": -2.5512168,
  "lon": 140.6830664
},
{
  "type": "node",
  "id": 10288977930,
  "lat": -2.5511799,
  "lon": 140.6827059
},