[
  {
    "name_english": "Ma'ale Adumim",
    "name_hebrew": "מעלה אדומים",
    "settlement_type": "city",
    "established_year": 1975,
    "location_region": "west_bank",
    "governorate": "Jerusalem",
    "population": 38000,
    "lat": 31.7771,
    "lon": 35.31,
    "area_dunams": 48000
  },
  {
    "name_english": "Ariel",
    "name_hebrew": "אריאל",
    "settlement_type": "city",
    "established_year": 1978,
    "location_region": "west_bank",
    "governorate": "Salfit",
    "population": 20000,
    "lat": 32.1056,
    "lon": 35.1731,
    "area_dunams": 15000
  },
  {
    "name_english": "Modi'in Illit",
    "name_hebrew": "מודיעין עילית",
    "settlement_type": "city",
    "established_year": 1996,
    "location_region": "west_bank",
    "governorate": "Ramallah",
    "population": 77000,
    "lat": 31.9333,
    "lon": 35.05,
    "area_dunams": 4700
  },
  {
    "name_english": "Beitar Illit",
    "name_hebrew": "ביתר עילית",
    "settlement_type": "city",
    "established_year": 1985,
    "location_region": "west_bank",
    "governorate": "Bethlehem",
    "population": 60000,
    "lat": 31.695,
    "lon": 35.1178,
    "area_dunams": 3000
  },
  {
    "name_english": "Pisgat Ze'ev",
    "name_hebrew": "פסגת זאב",
    "settlement_type": "neighborhood",
    "established_year": 1985,
    "location_region": "east_jerusalem",
    "governorate": "Jerusalem",
    "population": 50000,
    "lat": 31.8278,
    "lon": 35.2417,
    "area_dunams": 6000
  },
  {
    "name_english": "Ramot",
    "name_hebrew": "רמות",
    "settlement_type": "neighborhood",
    "established_year": 1973,
    "location_region": "east_jerusalem",
    "governorate": "Jerusalem",
    "population": 45000,
    "lat": 31.81,
    "lon": 35.1967,
    "area_dunams": 5500
  },
  {
    "name_english": "Neve Ya'akov",
    "name_hebrew": "נווה יעקב",
    "settlement_type": "neighborhood",
    "established_year": 1972,
    "location_region": "east_jerusalem",
    "governorate": "Jerusalem",
    "population": 25000,
    "lat": 31.8411,
    "lon": 35.2342,
    "area_dunams": 2500
  },
  {
    "name_english": "Gilo",
    "name_hebrew": "גילה",
    "settlement_type": "neighborhood",
    "established_year": 1971,
    "location_region": "east_jerusalem",
    "governorate": "Jerusalem",
    "population": 40000,
    "lat": 31.7333,
    "lon": 35.1833,
    "area_dunams": 4000
  },
  {
    "name_english": "French Hill",
    "name_hebrew": "גבעת צרפתית",
    "settlement_type": "neighborhood",
    "established_year": 1969,
    "location_region": "east_jerusalem",
    "governorate": "Jerusalem",
    "population": 7000,
    "lat": 31.8014,
    "lon": 35.2308,
    "area_dunams": 1000
  },
  {
    "name_english": "East Talpiot",
    "name_hebrew": "תלפיות מזרח",
    "settlement_type": "neighborhood",
    "established_year": 1973,
    "location_region": "east_jerusalem",
    "governorate": "Jerusalem",
    "population": 15000,
    "lat": 31.75,
    "lon": 35.2333,
    "area_dunams": 2000
  },
  {
    "name_english": "Har Homa",
    "name_hebrew": "הר חומה",
    "settlement_type": "neighborhood",
    "established_year": 1997,
    "location_region": "east_jerusalem",
    "governorate": "Jerusalem",
    "population": 25000,
    "lat": 31.725,
    "lon": 35.225,
    "area_dunams": 2500
  },
  {
    "name_english": "Ramat Eshkol",
    "name_hebrew": "רמת אשכול",
    "settlement_type": "neighborhood",
    "established_year": 1968,
    "location_region": "east_jerusalem",
    "governorate": "Jerusalem",
    "population": 12000,
    "lat": 31.7958,
    "lon": 35.2261,
    "area_dunams": 800
  },
  {
    "name_english": "Ma'alot Dafna",
    "name_hebrew": "מעלות דפנה",
    "settlement_type": "neighborhood",
    "established_year": 1972,
    "location_region": "east_jerusalem",
    "governorate": "Jerusalem",
    "population": 5000,
    "lat": 31.7903,
    "lon": 35.2314,
    "area_dunams": 400
  },
  {
    "name_english": "Jewish Quarter (Old City)",
    "name_hebrew": "הרובע היהודי",
    "settlement_type": "neighborhood",
    "established_year": 1967,
    "location_region": "east_jerusalem",
    "governorate": "Jerusalem",
    "population": 3000,
    "lat": 31.775,
    "lon": 35.2311,
    "area_dunams": 130
  },
  {
    "name_english": "Kiryat Arba",
    "name_hebrew": "קרית ארבע",
    "settlement_type": "settlement",
    "established_year": 1968,
    "location_region": "west_bank",
    "governorate": "Hebron",
    "population": 8000,
    "lat": 31.5247,
    "lon": 35.1186,
    "area_dunams": 4000
  },
  {
    "name_english": "Hebron Settlements",
    "name_hebrew": "יישובי חברון",
    "settlement_type": "settlement",
    "established_year": 1979,
    "location_region": "west_bank",
    "governorate": "Hebron",
    "population": 800,
    "lat": 31.5294,
    "lon": 35.1036,
    "area_dunams": 500
  },
  {
    "name_english": "Beit Hadassah",
    "name_hebrew": "בית הדסה",
    "settlement_type": "outpost",
    "established_year": 1979,
    "location_region": "west_bank",
    "governorate": "Hebron",
    "population": 30,
    "lat": 31.5239,
    "lon": 35.1108,
    "area_dunams": 10
  },
  {
    "name_english": "Tel Rumeida",
    "name_hebrew": "תל רומיידה",
    "settlement_type": "outpost",
    "established_year": 1984,
    "location_region": "west_bank",
    "governorate": "Hebron",
    "population": 20,
    "lat": 31.5244,
    "lon": 35.1117,
    "area_dunams": 5
  },
  {
    "name_english": "Avraham Avinu",
    "name_hebrew": "אברהם אבינו",
    "settlement_type": "outpost",
    "established_year": 1983,
    "location_region": "west_bank",
    "governorate": "Hebron",
    "population": 25,
    "lat": 31.5256,
    "lon": 35.1103,
    "area_dunams": 8
  },
  {
    "name_english": "Efrat",
    "name_hebrew": "אפרת",
    "settlement_type": "settlement",
    "established_year": 1983,
    "location_region": "west_bank",
    "governorate": "Bethlehem",
    "population": 10000,
    "lat": 31.6558,
    "lon": 35.1497,
    "area_dunams": 4500
  },
  {
    "name_english": "Kfar Etzion",
    "name_hebrew": "כפר עציון",
    "settlement_type": "settlement",
    "established_year": 1967,
    "location_region": "west_bank",
    "governorate": "Bethlehem",
    "population": 800,
    "lat": 31.6517,
    "lon": 35.1117,
    "area_dunams": 2000
  },
  {
    "name_english": "Alon Shvut",
    "name_hebrew": "אלון שבות",
    "settlement_type": "settlement",
    "established_year": 1970,
    "location_region": "west_bank",
    "governorate": "Bethlehem",
    "population": 4000,
    "lat": 31.6639,
    "lon": 35.1242,
    "area_dunams": 1500
  },
  {
    "name_english": "Neve Daniel",
    "name_hebrew": "נווה דניאל",
    "settlement_type": "settlement",
    "established_year": 1982,
    "location_region": "west_bank",
    "governorate": "Bethlehem",
    "population": 2500,
    "lat": 31.6794,
    "lon": 35.1378,
    "area_dunams": 1000
  },
  {
    "name_english": "El'azar",
    "name_hebrew": "אלעזר",
    "settlement_type": "settlement",
    "established_year": 1975,
    "location_region": "west_bank",
    "governorate": "Bethlehem",
    "population": 2500,
    "lat": 31.6472,
    "lon": 35.1528,
    "area_dunams": 800
  },
  {
    "name_english": "Migdal Oz",
    "name_hebrew": "מגדל עוז",
    "settlement_type": "settlement",
    "established_year": 1977,
    "location_region": "west_bank",
    "governorate": "Bethlehem",
    "population": 600,
    "lat": 31.6383,
    "lon": 35.1133,
    "area_dunams": 500
  },
  {
    "name_english": "Rosh Tzurim",
    "name_hebrew": "ראש צורים",
    "settlement_type": "settlement",
    "established_year": 1969,
    "location_region": "west_bank",
    "governorate": "Bethlehem",
    "population": 700,
    "lat": 31.6561,
    "lon": 35.1039,
    "area_dunams": 600
  },
  {
    "name_english": "Bat Ayin",
    "name_hebrew": "בת עין",
    "settlement_type": "settlement",
    "established_year": 1989,
    "location_region": "west_bank",
    "governorate": "Bethlehem",
    "population": 1500,
    "lat": 31.6889,
    "lon": 35.0933,
    "area_dunams": 500
  },
  {
    "name_english": "Tekoa",
    "name_hebrew": "תקוע",
    "settlement_type": "settlement",
    "established_year": 1977,
    "location_region": "west_bank",
    "governorate": "Bethlehem",
    "population": 4000,
    "lat": 31.6333,
    "lon": 35.2,
    "area_dunams": 2000
  },
  {
    "name_english": "Nokdim",
    "name_hebrew": "נוקדים",
    "settlement_type": "settlement",
    "established_year": 1982,
    "location_region": "west_bank",
    "governorate": "Bethlehem",
    "population": 1800,
    "lat": 31.63,
    "lon": 35.2083,
    "area_dunams": 800
  },
  {
    "name_english": "Beit El",
    "name_hebrew": "בית אל",
    "settlement_type": "settlement",
    "established_year": 1977,
    "location_region": "west_bank",
    "governorate": "Ramallah",
    "population": 7000,
    "lat": 31.9428,
    "lon": 35.2333,
    "area_dunams": 3000
  },
  {
    "name_english": "Ofra",
    "name_hebrew": "עפרה",
    "settlement_type": "settlement",
    "established_year": 1975,
    "location_region": "west_bank",
    "governorate": "Ramallah",
    "population": 4000,
    "lat": 31.9639,
    "lon": 35.2825,
    "area_dunams": 2500
  },
  {
    "name_english": "Psagot",
    "name_hebrew": "פסגות",
    "settlement_type": "settlement",
    "established_year": 1981,
    "location_region": "west_bank",
    "governorate": "Ramallah",
    "population": 2000,
    "lat": 31.9028,
    "lon": 35.235,
    "area_dunams": 800
  },
  {
    "name_english": "Kochav Ya'akov",
    "name_hebrew": "כוכב יעקב",
    "settlement_type": "settlement",
    "established_year": 1984,
    "location_region": "west_bank",
    "governorate": "Ramallah",
    "population": 8000,
    "lat": 31.8583,
    "lon": 35.2417,
    "area_dunams": 1200
  },
  {
    "name_english": "Givat Ze'ev",
    "name_hebrew": "גבעת זאב",
    "settlement_type": "settlement",
    "established_year": 1983,
    "location_region": "west_bank",
    "governorate": "Ramallah",
    "population": 17000,
    "lat": 31.8611,
    "lon": 35.1667,
    "area_dunams": 3500
  },
  {
    "name_english": "Adam (Geva Binyamin)",
    "name_hebrew": "אדם",
    "settlement_type": "settlement",
    "established_year": 1984,
    "location_region": "west_bank",
    "governorate": "Ramallah",
    "population": 6000,
    "lat": 31.8556,
    "lon": 35.25,
    "area_dunams": 1500
  },
  {
    "name_english": "Shilo",
    "name_hebrew": "שילה",
    "settlement_type": "settlement",
    "established_year": 1978,
    "location_region": "west_bank",
    "governorate": "Ramallah",
    "population": 4000,
    "lat": 32.0556,
    "lon": 35.29,
    "area_dunams": 3000
  },
  {
    "name_english": "Eli",
    "name_hebrew": "עלי",
    "settlement_type": "settlement",
    "established_year": 1984,
    "location_region": "west_bank",
    "governorate": "Ramallah",
    "population": 4500,
    "lat": 32.0583,
    "lon": 35.2417,
    "area_dunams": 2000
  },
  {
    "name_english": "Talmon",
    "name_hebrew": "טלמון",
    "settlement_type": "settlement",
    "established_year": 1989,
    "location_region": "west_bank",
    "governorate": "Ramallah",
    "population": 3000,
    "lat": 31.9667,
    "lon": 35.0833,
    "area_dunams": 1500
  },
  {
    "name_english": "Dolev",
    "name_hebrew": "דולב",
    "settlement_type": "settlement",
    "established_year": 1983,
    "location_region": "west_bank",
    "governorate": "Ramallah",
    "population": 1500,
    "lat": 31.95,
    "lon": 35.1333,
    "area_dunams": 800
  },
  {
    "name_english": "Nili",
    "name_hebrew": "נילי",
    "settlement_type": "settlement",
    "established_year": 1981,
    "location_region": "west_bank",
    "governorate": "Ramallah",
    "population": 1200,
    "lat": 31.9333,
    "lon": 35.0667,
    "area_dunams": 600
  },
  {
    "name_english": "Halamish (Neve Tzuf)",
    "name_hebrew": "חלמיש",
    "settlement_type": "settlement",
    "established_year": 1977,
    "location_region": "west_bank",
    "governorate": "Ramallah",
    "population": 1800,
    "lat": 32.0,
    "lon": 35.1167,
    "area_dunams": 1000
  },
  {
    "name_english": "Ateret",
    "name_hebrew": "עטרת",
    "settlement_type": "settlement",
    "established_year": 1981,
    "location_region": "west_bank",
    "governorate": "Ramallah",
    "population": 1000,
    "lat": 31.975,
    "lon": 35.2,
    "area_dunams": 600
  },
  {
    "name_english": "Na'ale",
    "name_hebrew": "נעלה",
    "settlement_type": "settlement",
    "established_year": 1988,
    "location_region": "west_bank",
    "governorate": "Ramallah",
    "population": 1500,
    "lat": 31.9333,
    "lon": 35.0833,
    "area_dunams": 500
  },
  {
    "name_english": "Yitzhar",
    "name_hebrew": "יצהר",
    "settlement_type": "settlement",
    "established_year": 1983,
    "location_region": "west_bank",
    "governorate": "Nablus",
    "population": 1500,
    "lat": 32.1333,
    "lon": 35.2583,
    "area_dunams": 800
  },
  {
    "name_english": "Bracha",
    "name_hebrew": "ברכה",
    "settlement_type": "settlement",
    "established_year": 1983,
    "location_region": "west_bank",
    "governorate": "Nablus",
    "population": 2000,
    "lat": 32.1833,
    "lon": 35.2833,
    "area_dunams": 1000
  },
  {
    "name_english": "Itamar",
    "name_hebrew": "איתמר",
    "settlement_type": "settlement",
    "established_year": 1984,
    "location_region": "west_bank",
    "governorate": "Nablus",
    "population": 1200,
    "lat": 32.1833,
    "lon": 35.3333,
    "area_dunams": 3000
  },
  {
    "name_english": "Elon Moreh",
    "name_hebrew": "אלון מורה",
    "settlement_type": "settlement",
    "established_year": 1980,
    "location_region": "west_bank",
    "governorate": "Nablus",
    "population": 2000,
    "lat": 32.2167,
    "lon": 35.3083,
    "area_dunams": 1500
  },
  {
    "name_english": "Kedumim",
    "name_hebrew": "קדומים",
    "settlement_type": "settlement",
    "established_year": 1975,
    "location_region": "west_bank",
    "governorate": "Nablus",
    "population": 4500,
    "lat": 32.1833,
    "lon": 35.0833,
    "area_dunams": 2500
  },
  {
    "name_english": "Shavei Shomron",
    "name_hebrew": "שבי שומרון",
    "settlement_type": "settlement",
    "established_year": 1977,
    "location_region": "west_bank",
    "governorate": "Nablus",
    "population": 900,
    "lat": 32.2333,
    "lon": 35.1833,
    "area_dunams": 700
  },
  {
    "name_english": "Karnei Shomron",
    "name_hebrew": "קרני שומרון",
    "settlement_type": "settlement",
    "established_year": 1978,
    "location_region": "west_bank",
    "governorate": "Nablus",
    "population": 8000,
    "lat": 32.1667,
    "lon": 35.0917,
    "area_dunams": 2500
  },
  {
    "name_english": "Har Bracha",
    "name_hebrew": "הר ברכה",
    "settlement_type": "settlement",
    "established_year": 1983,
    "location_region": "west_bank",
    "governorate": "Nablus",
    "population": 2500,
    "lat": 32.1917,
    "lon": 35.275,
    "area_dunams": 1000
  },
  {
    "name_english": "Barkan",
    "name_hebrew": "ברקן",
    "settlement_type": "settlement",
    "established_year": 1981,
    "location_region": "west_bank",
    "governorate": "Salfit",
    "population": 2000,
    "lat": 32.075,
    "lon": 35.1167,
    "area_dunams": 1200
  },
  {
    "name_english": "Emmanuel",
    "name_hebrew": "עמנואל",
    "settlement_type": "settlement",
    "established_year": 1983,
    "location_region": "west_bank",
    "governorate": "Salfit",
    "population": 4000,
    "lat": 32.1667,
    "lon": 35.1583,
    "area_dunams": 2000
  },
  {
    "name_english": "Revava",
    "name_hebrew": "רבבה",
    "settlement_type": "settlement",
    "established_year": 1991,
    "location_region": "west_bank",
    "governorate": "Salfit",
    "population": 800,
    "lat": 32.1167,
    "lon": 35.1083,
    "area_dunams": 400
  },
  {
    "name_english": "Yakir",
    "name_hebrew": "יקיר",
    "settlement_type": "settlement",
    "established_year": 1981,
    "location_region": "west_bank",
    "governorate": "Salfit",
    "population": 1500,
    "lat": 32.1333,
    "lon": 35.0833,
    "area_dunams": 600
  },
  {
    "name_english": "Kiryat Netafim",
    "name_hebrew": "קריית נטפים",
    "settlement_type": "settlement",
    "established_year": 1982,
    "location_region": "west_bank",
    "governorate": "Salfit",
    "population": 600,
    "lat": 32.1083,
    "lon": 35.0917,
    "area_dunams": 400
  },
  {
    "name_english": "Alfei Menashe",
    "name_hebrew": "אלפי מנשה",
    "settlement_type": "settlement",
    "established_year": 1983,
    "location_region": "west_bank",
    "governorate": "Qalqilya",
    "population": 8000,
    "lat": 32.1583,
    "lon": 35.0,
    "area_dunams": 2000
  },
  {
    "name_english": "Sha'arei Tikva",
    "name_hebrew": "שערי תקווה",
    "settlement_type": "settlement",
    "established_year": 1983,
    "location_region": "west_bank",
    "governorate": "Qalqilya",
    "population": 6000,
    "lat": 32.125,
    "lon": 34.9833,
    "area_dunams": 1500
  },
  {
    "name_english": "Zufin",
    "name_hebrew": "צופין",
    "settlement_type": "settlement",
    "established_year": 1989,
    "location_region": "west_bank",
    "governorate": "Qalqilya",
    "population": 2000,
    "lat": 32.1583,
    "lon": 35.025,
    "area_dunams": 700
  },
  {
    "name_english": "Oranit",
    "name_hebrew": "אורנית",
    "settlement_type": "settlement",
    "established_year": 1985,
    "location_region": "west_bank",
    "governorate": "Qalqilya",
    "population": 9000,
    "lat": 32.1333,
    "lon": 35.0,
    "area_dunams": 2500
  },
  {
    "name_english": "Sal'it",
    "name_hebrew": "סלעית",
    "settlement_type": "settlement",
    "established_year": 1977,
    "location_region": "west_bank",
    "governorate": "Tulkarm",
    "population": 500,
    "lat": 32.3,
    "lon": 35.05,
    "area_dunams": 300
  },
  {
    "name_english": "Avnei Hefetz",
    "name_hebrew": "אבני חפץ",
    "settlement_type": "settlement",
    "established_year": 1990,
    "location_region": "west_bank",
    "governorate": "Tulkarm",
    "population": 2000,
    "lat": 32.3667,
    "lon": 35.1167,
    "area_dunams": 600
  },
  {
    "name_english": "Einav",
    "name_hebrew": "עינב",
    "settlement_type": "settlement",
    "established_year": 1981,
    "location_region": "west_bank",
    "governorate": "Tulkarm",
    "population": 800,
    "lat": 32.3333,
    "lon": 35.1,
    "area_dunams": 400
  },
  {
    "name_english": "Ganim",
    "name_hebrew": "גנים",
    "settlement_type": "evacuated",
    "established_year": 1983,
    "location_region": "west_bank",
    "governorate": "Jenin",
    "population": 0,
    "lat": 32.3667,
    "lon": 35.2,
    "area_dunams": 500
  },
  {
    "name_english": "Kadim",
    "name_hebrew": "קדים",
    "settlement_type": "evacuated",
    "established_year": 1983,
    "location_region": "west_bank",
    "governorate": "Jenin",
    "population": 0,
    "lat": 32.35,
    "lon": 35.2333,
    "area_dunams": 400
  },
  {
    "name_english": "Mevo Dotan",
    "name_hebrew": "מבוא דותן",
    "settlement_type": "settlement",
    "established_year": 1988,
    "location_region": "west_bank",
    "governorate": "Jenin",
    "population": 600,
    "lat": 32.4083,
    "lon": 35.2417,
    "area_dunams": 500
  },
  {
    "name_english": "Homesh",
    "name_hebrew": "חומש",
    "settlement_type": "evacuated",
    "established_year": 1980,
    "location_region": "west_bank",
    "governorate": "Jenin",
    "population": 0,
    "lat": 32.3667,
    "lon": 35.2,
    "area_dunams": 600
  },
  {
    "name_english": "Ma'ale Efrayim",
    "name_hebrew": "מעלה אפרים",
    "settlement_type": "settlement",
    "established_year": 1970,
    "location_region": "west_bank",
    "governorate": "Jordan Valley",
    "population": 2000,
    "lat": 32.0833,
    "lon": 35.4083,
    "area_dunams": 3000
  },
  {
    "name_english": "Mechola",
    "name_hebrew": "מחולה",
    "settlement_type": "settlement",
    "established_year": 1968,
    "location_region": "west_bank",
    "governorate": "Jordan Valley",
    "population": 450,
    "lat": 32.2333,
    "lon": 35.5333,
    "area_dunams": 2000
  },
  {
    "name_english": "Hamra",
    "name_hebrew": "חמרה",
    "settlement_type": "settlement",
    "established_year": 1971,
    "location_region": "west_bank",
    "governorate": "Jordan Valley",
    "population": 200,
    "lat": 32.1383,
    "lon": 35.47,
    "area_dunams": 1500
  },
  {
    "name_english": "Bekaot",
    "name_hebrew": "בקעות",
    "settlement_type": "settlement",
    "established_year": 1972,
    "location_region": "west_bank",
    "governorate": "Jordan Valley",
    "population": 200,
    "lat": 32.2,
    "lon": 35.5167,
    "area_dunams": 1800
  },
  {
    "name_english": "Tomer",
    "name_hebrew": "תומר",
    "settlement_type": "settlement",
    "established_year": 1978,
    "location_region": "west_bank",
    "governorate": "Jordan Valley",
    "population": 350,
    "lat": 32.05,
    "lon": 35.4917,
    "area_dunams": 1200
  },
  {
    "name_english": "Petzael",
    "name_hebrew": "פצאל",
    "settlement_type": "settlement",
    "established_year": 1975,
    "location_region": "west_bank",
    "governorate": "Jordan Valley",
    "population": 250,
    "lat": 32.0333,
    "lon": 35.4833,
    "area_dunams": 1000
  },
  {
    "name_english": "Gitit",
    "name_hebrew": "גיתית",
    "settlement_type": "settlement",
    "established_year": 1973,
    "location_region": "west_bank",
    "governorate": "Jordan Valley",
    "population": 200,
    "lat": 32.1167,
    "lon": 35.4583,
    "area_dunams": 800
  },
  {
    "name_english": "Yafit",
    "name_hebrew": "יפית",
    "settlement_type": "settlement",
    "established_year": 1980,
    "location_region": "west_bank",
    "governorate": "Jordan Valley",
    "population": 150,
    "lat": 32.0833,
    "lon": 35.5,
    "area_dunams": 600
  },
  {
    "name_english": "Netiv HaGdud",
    "name_hebrew": "נתיב הגדוד",
    "settlement_type": "settlement",
    "established_year": 1976,
    "location_region": "west_bank",
    "governorate": "Jordan Valley",
    "population": 200,
    "lat": 31.95,
    "lon": 35.4833,
    "area_dunams": 700
  },
  {
    "name_english": "Niran",
    "name_hebrew": "נירן",
    "settlement_type": "settlement",
    "established_year": 1977,
    "location_region": "west_bank",
    "governorate": "Jordan Valley",
    "population": 100,
    "lat": 31.9333,
    "lon": 35.4833,
    "area_dunams": 500
  },
  {
    "name_english": "Yitav",
    "name_hebrew": "ייט״ב",
    "settlement_type": "settlement",
    "established_year": 1970,
    "location_region": "west_bank",
    "governorate": "Jordan Valley",
    "population": 100,
    "lat": 31.9333,
    "lon": 35.4833,
    "area_dunams": 400
  },
  {
    "name_english": "Argaman",
    "name_hebrew": "ארגמן",
    "settlement_type": "settlement",
    "established_year": 1968,
    "location_region": "west_bank",
    "governorate": "Jordan Valley",
    "population": 200,
    "lat": 32.1833,
    "lon": 35.5083,
    "area_dunams": 1500
  },
  {
    "name_english": "Roi",
    "name_hebrew": "רועי",
    "settlement_type": "settlement",
    "established_year": 1976,
    "location_region": "west_bank",
    "governorate": "Jordan Valley",
    "population": 200,
    "lat": 32.25,
    "lon": 35.5333,
    "area_dunams": 1000
  },
  {
    "name_english": "Maon",
    "name_hebrew": "מעון",
    "settlement_type": "settlement",
    "established_year": 1981,
    "location_region": "west_bank",
    "governorate": "Hebron",
    "population": 500,
    "lat": 31.3833,
    "lon": 35.1167,
    "area_dunams": 500
  },
  {
    "name_english": "Carmel",
    "name_hebrew": "כרמל",
    "settlement_type": "settlement",
    "established_year": 1981,
    "location_region": "west_bank",
    "governorate": "Hebron",
    "population": 600,
    "lat": 31.4139,
    "lon": 35.1083,
    "area_dunams": 400
  },
  {
    "name_english": "Susiya",
    "name_hebrew": "סוסיא",
    "settlement_type": "settlement",
    "established_year": 1983,
    "location_region": "west_bank",
    "governorate": "Hebron",
    "population": 1000,
    "lat": 31.3967,
    "lon": 35.1111,
    "area_dunams": 600
  },
  {
    "name_english": "Otniel",
    "name_hebrew": "עתניאל",
    "settlement_type": "settlement",
    "established_year": 1983,
    "location_region": "west_bank",
    "governorate": "Hebron",
    "population": 800,
    "lat": 31.45,
    "lon": 35.0333,
    "area_dunams": 500
  },
  {
    "name_english": "Shima",
    "name_hebrew": "שימא",
    "settlement_type": "settlement",
    "established_year": 1985,
    "location_region": "west_bank",
    "governorate": "Hebron",
    "population": 400,
    "lat": 31.4333,
    "lon": 35.0167,
    "area_dunams": 300
  },
  {
    "name_english": "Eshkolot",
    "name_hebrew": "אשכולות",
    "settlement_type": "settlement",
    "established_year": 1982,
    "location_region": "west_bank",
    "governorate": "Hebron",
    "population": 300,
    "lat": 31.4,
    "lon": 35.0,
    "area_dunams": 400
  },
  {
    "name_english": "Negohot",
    "name_hebrew": "נגוהות",
    "settlement_type": "settlement",
    "established_year": 1982,
    "location_region": "west_bank",
    "governorate": "Hebron",
    "population": 200,
    "lat": 31.5,
    "lon": 34.9833,
    "area_dunams": 300
  },
  {
    "name_english": "Tene (Omarim)",
    "name_hebrew": "טנא",
    "settlement_type": "settlement",
    "established_year": 1983,
    "location_region": "west_bank",
    "governorate": "Hebron",
    "population": 300,
    "lat": 31.4583,
    "lon": 35.0,
    "area_dunams": 400
  },
  {
    "name_english": "Beit Yatir",
    "name_hebrew": "בית יתיר",
    "settlement_type": "settlement",
    "established_year": 1983,
    "location_region": "west_bank",
    "governorate": "Hebron",
    "population": 400,
    "lat": 31.35,
    "lon": 35.0667,
    "area_dunams": 500
  },
  {
    "name_english": "Adora",
    "name_hebrew": "אדורה",
    "settlement_type": "settlement",
    "established_year": 1983,
    "location_region": "west_bank",
    "governorate": "Hebron",
    "population": 400,
    "lat": 31.4833,
    "lon": 35.0333,
    "area_dunams": 400
  },
  {
    "name_english": "Telem",
    "name_hebrew": "תלם",
    "settlement_type": "settlement",
    "established_year": 1982,
    "location_region": "west_bank",
    "governorate": "Hebron",
    "population": 400,
    "lat": 31.5,
    "lon": 35.0,
    "area_dunams": 350
  },
  {
    "name_english": "Katzrin",
    "name_hebrew": "קצרין",
    "settlement_type": "city",
    "established_year": 1977,
    "location_region": "golan",
    "governorate": "Golan Heights",
    "population": 8000,
    "lat": 32.9939,
    "lon": 35.6919,
    "area_dunams": 15000
  },
  {
    "name_english": "Merom Golan",
    "name_hebrew": "מרום גולן",
    "settlement_type": "settlement",
    "established_year": 1967,
    "location_region": "golan",
    "governorate": "Golan Heights",
    "population": 600,
    "lat": 33.1333,
    "lon": 35.7833,
    "area_dunams": 5000
  },
  {
    "name_english": "Ein Zivan",
    "name_hebrew": "עין זיוון",
    "settlement_type": "settlement",
    "established_year": 1968,
    "location_region": "golan",
    "governorate": "Golan Heights",
    "population": 400,
    "lat": 33.1333,
    "lon": 35.7333,
    "area_dunams": 3000
  },
  {
    "name_english": "Bnei Yehuda",
    "name_hebrew": "בני יהודה",
    "settlement_type": "settlement",
    "established_year": 1972,
    "location_region": "golan",
    "governorate": "Golan Heights",
    "population": 800,
    "lat": 32.9333,
    "lon": 35.7167,
    "area_dunams": 2500
  },
  {
    "name_english": "Hispin",
    "name_hebrew": "חספין",
    "settlement_type": "settlement",
    "established_year": 1978,
    "location_region": "golan",
    "governorate": "Golan Heights",
    "population": 600,
    "lat": 32.8667,
    "lon": 35.8167,
    "area_dunams": 2000
  },
  {
    "name_english": "Neve Ativ",
    "name_hebrew": "נווה אטיב",
    "settlement_type": "settlement",
    "established_year": 1972,
    "location_region": "golan",
    "governorate": "Golan Heights",
    "population": 500,
    "lat": 33.2667,
    "lon": 35.7667,
    "area_dunams": 1500
  }
]